stop_id,stop_name,stop_lat,stop_lon,zone_id,location_type,stop_timezone,label,agency_id,attribute
170,"[CTB] MING WAH DAI HA BLOCK C, A KUNG NGAM ROAD",22.27885,114.23146000000001,170,0,Asia/Hong_Kong,FB,,0.9511470228432527
1125,"[CTB] SHUN ON ESTATE, LEE ON ROAD|[KMB+CTB] SHUN ON ESTATE/<BR>SHUN ON ESTATE, LEE ON ROAD|[KMB] ON YAT HOUSE|[KMB] SHUN ON ESTATE",22.32897,114.22702,1125,0,Asia/Hong_Kong,FB,,0.8294906010341566
8340,"[KMB] SZE MEI STREET, SAN PO KONG|[NWFB] SAN PO KONG",22.33773,114.20161,8340,0,Asia/Hong_Kong,FB,,0.9664664705904119
4093,"[KMB+NWFB] HIU KWONG STREET RECREATION GROUND/<BR>HIU KWONG STREET RECREATION GROUND, HIU KWONG STREET|[KMB] HIU KWONG STREET RECREATION GROUND",22.31707,114.23161,4093,0,Asia/Hong_Kong,FB,,0.8989112335360689
10000062,[LWB] YING TUNG ESTATE|[LWB] YING TUNG ESTATE BUS TERMINUS|[NLB] YING TUNG ESTATE,22.29709,113.95321000000001,10000062,0,Asia/Hong_Kong,FB,,0.9674680641152171
234,"[CTB] THOMSON ROAD, FLEMING ROAD",22.27741,114.17497,234,0,Asia/Hong_Kong,FB,,0.9505412896253715
9433,[KMB] TIERRA VERDE,22.35795,114.10571999999999,9433,0,Asia/Hong_Kong,FB,,0.8760614148626789
1422,"[CTB] TIN MA COURT, LUNG CHEUNG ROAD|[KMB] TIN MA COURT",22.342489999999998,114.18583000000001,1422,0,Asia/Hong_Kong,FB,,0.9131892657890889
4013,"[CTB] KNIGHT STREET, PRINCE EDWARD ROAD WEST|[KMB] KNIGHT STREET",22.3254,114.17693,4013,0,Asia/Hong_Kong,FB,,0.8964879320316512
9632,[KMB] WING LOK HOUSE FUK LOI ESTATE,22.373820000000002,114.11505,9632,0,Asia/Hong_Kong,FB,,0.9372225868929169
8201,[KMB] HONG YAT COURT,22.31028,114.23536000000001,8201,0,Asia/Hong_Kong,FB,,0.9670985891745253
11066,[NLB] CHEUNG SHA BRIDGE,22.23349,113.94689,11066,0,Asia/Hong_Kong,FB,,0.9090759654841223
555,"[CTB] KING HEI HOUSE TUNG HEI COURT, YIU HING ROAD|[KMB+CTB] KING HEI HOUSE/<BR>KING HEI HOUSE TUNG HEI COURT, YIU HING ROAD|[KMB+NWFB] KING HEI HOUSE/<BR>KING HEI HOUSE TUNG HEI COURT, YIU HING ROAD|[NWFB] KING HEI HOUSE TUNG HEI COURT, YIU HING ROAD",22.28006,114.21788000000001,555,0,Asia/Hong_Kong,FB,,0.8763681987184448
12386,[KMB] MIDDLE ROAD TSIM SHA TSUI,22.29522,114.17241999999999,12386,0,Asia/Hong_Kong,FB,,0.9706146367678729
6637,[KMB] GOLF COURSE,22.49534,114.12105,6637,0,Asia/Hong_Kong,FB,,0.8781144146920844
9084,[KMB] TAI NAN STREET,22.326420000000002,114.16372,9084,0,Asia/Hong_Kong,FB,,0.9113578476395228
12398,[KMB] VILLA ART DECO|[LRTFeeder] VILLA ART DECO,22.44003,114.01891,12398,0,Asia/Hong_Kong,FB,,0.7515407303234766
8237,[KMB] SHUNG YAN STREET KWUN TONG,22.31616,114.22336000000001,8237,0,Asia/Hong_Kong,FB,,0.8433665641763991
13232,"[CTB] THE VISIONARY, YING TUNG ROAD|[LWB] THE VISIONARY|[NLB] THE VISIONARY (SOUTH BOUND)|[NLB] THE VISIONARY(SOUTH BOUND)",22.29562,113.95206999999999,13232,0,Asia/Hong_Kong,FB,,0.9705134596959467
1322,"[CTB] WYLIE ROAD, GASCOIGNE ROAD|[KMB] WYLIE ROAD|[NWFB] WYLIE ROAD, GASCOIGNE ROAD",22.30671,114.17611000000001,1322,0,Asia/Hong_Kong,FB,,0.6422295820016565
12678,[LRTFeeder] TAI TONG SHAN ROAD,22.41623,114.0237,12678,0,Asia/Hong_Kong,FB,,0.6444224772667932
6448,[KMB] FORTUNE GARDEN,22.45948,114.19726999999999,6448,0,Asia/Hong_Kong,FB,,0.9549898267438409
MTR-CAB,Causeway Bay,22.2802,114.1835,,,,MTR,,0.9683504532178622
8290,"[KMB] FISHERMAN VILLAGE|[NWFB] FISHERMAN VILLAGE, HIRAM'S HIGHWAY",22.361710000000002,114.25688000000001,8290,0,Asia/Hong_Kong,FB,,0.9862109200558027
9487,[KMB] PING LAI PATH KWAI CHUNG,22.367420000000003,114.13496,9487,0,Asia/Hong_Kong,FB,,0.8097126063520234
6250,[KMB] SAVANNA GARDEN,22.437920000000002,114.18257,6250,0,Asia/Hong_Kong,FB,,0.8857521722643007
773,"[KMB+CTB] HO MAN TIN HILL ROAD/<BR>HO MAN TIN HILL ROAD, WYLIE ROAD|[KMB] HO MAN TIN HILL ROAD",22.3125,114.17613,773,0,Asia/Hong_Kong,FB,,0.9117861719329078
6000,[KMB+CTB] LION ROCK TUNNEL/<BR>LION ROCK TUNNEL TOLL PLAZA|[KMB] LION ROCK TUNNEL,22.35833,114.17301,6000,0,Asia/Hong_Kong,FB,,0.7194861237355583
12435,[KMB] TAI NAN WEST STREET,22.33592,114.15048,12435,0,Asia/Hong_Kong,FB,,0.878667117671784
12424,[KMB] ROYAL GREEN|[LWB] ROYAL GREEN,22.49456,114.12633000000001,12424,0,Asia/Hong_Kong,FB,,0.8426342656990637
865,[KMB] CHEUNG SHA WAN BUS TERMINUS,22.33711,114.14883,865,0,Asia/Hong_Kong,FB,,0.9541297137111825
6125,[KMB] ROYAL ASCOT BUS TERMINUS,22.40033,114.2012,6125,0,Asia/Hong_Kong,FB,,0.5815443265090786
112,"[CTB] KAM HONG STREET, KING'S ROAD|[KMB+CTB] KAM HONG STREET/<BR>KAM HONG STREET, KING'S ROAD|[KMB+NWFB] KAM HONG STREET/<BR>KAM HONG STREET, KING'S ROAD|[NWFB] KAM HONG STREET, KING'S ROAD",22.29124,114.20121999999999,112,0,Asia/Hong_Kong,FB,,0.9668903392037832
256,"[CTB] ST. JOHN'S CATHEDRAL, GARDEN ROAD|[CTB] ST. JOHN'S CATHEDRAL/<BR>ST. JOHN'S CATHEDRAL, GARDEN ROAD|[KMB+CTB] ST. JOHN'S CATHEDRAL/<BR>ST. JOHN'S CATHEDRAL, GARDEN ROAD|[NWFB] ST. JOHN'S CATHEDRAL, GARDEN ROAD",22.278270000000003,114.1597,256,0,Asia/Hong_Kong,FB,,0.9103802942335749
786,[KMB+CTB] HEREFORD ROAD/<BR>HEREFORD ROAD,22.33405,114.18038999999999,786,0,Asia/Hong_Kong,FB,,0.8459733120643361
985,[KMB+CTB] SHATIN CENTRAL BUS TERMINUS/<BR>SHATIN CENTRAL|[KMB] SHATIN CENTRAL BUS TERMINUS|[LWB] SHA TIN CENTRAL B/T|[NWFB] SHA TIN CENTRAL,22.38216,114.18815,985,0,Asia/Hong_Kong,FB,,0.8970215661065948
9726,"[CTB] SIU LAM, CASTLE PEAK ROAD|[KMB] SIU LAM|[LRTFeeder] SIU LAM",22.36411,114.01501999999999,9726,0,Asia/Hong_Kong,FB,,0.7690139900046289
249,"[CTB] SEYMOUR ROAD, CAINE ROAD|[KMB+CTB] SEYMOUR ROAD/<BR>SEYMOUR ROAD, CAINE ROAD|[NWFB] SEYMOUR ROAD, CAINE ROAD",22.28312,114.14793,249,0,Asia/Hong_Kong,FB,,0.8970295288066515
4245,[KMB] LOK FU RECREATION GROUND,22.3371,114.18715,4245,0,Asia/Hong_Kong,FB,,0.9400687721046074
9516,"[CTB] LAM WOO MEMORIAL SECONDARY SCHOOL, KWAI SHING CIRCUIT|[KMB] LAM WOO MEMORIAL SECONDARY SCHOOL",22.36525,114.12996000000001,9516,0,Asia/Hong_Kong,FB,,0.9815626708285717
6736,[KMB] NGAU TAM MEI,22.482,114.05861999999999,6736,0,Asia/Hong_Kong,FB,,0.7763759144515038
9066,[KMB] PUI CHING MIDDLE SCHOOL,22.31796,114.17638999999998,9066,0,Asia/Hong_Kong,FB,,0.9710483863679433
12406,[KMB] WATER SPORTS CENTRE|[LWB] WATER SPORTS CENTRE,22.41985,114.2142,12406,0,Asia/Hong_Kong,FB,,0.834609561057636
89,"[CTB] STANLEY MOUND ROAD, STANLEY VILLAGE ROAD|[NWFB] STANLEY MOUND ROAD, STANLEY VILLAGE ROAD",22.2219,114.21123999999999,89,0,Asia/Hong_Kong,FB,,0.8656461705837117
1439,"[NWFB] ZETLAND STREET, ICE HOUSE STREET",22.27982,114.15657,1439,0,Asia/Hong_Kong,FB,,0.8379777424515192
10188,[KMB] SHUI TSAN TIN|[LWB] SHUI TSAN TIN,22.427120000000002,114.08198999999999,10188,0,Asia/Hong_Kong,FB,,0.9824695091337815
9065,"[CTB] HONG KONG METROPOLITAN UNIVERSITY, FAT KWONG STREET|[KMB] HK METROPOLITAN UNIVERSITY",22.31662,114.18033999999999,9065,0,Asia/Hong_Kong,FB,,0.8429089110377688
6133,"[CTB] FO TAN TSUEN, FO TAN ROAD|[KMB] FO TAN VILLAGE|[NWFB] FO TAN TSUEN, FO TAN ROAD",22.39399,114.19658000000001,6133,0,Asia/Hong_Kong,FB,,0.9584959892635097
6698,[KMB] LO WU STATION ROAD,22.52583,114.12342,6698,0,Asia/Hong_Kong,FB,,0.26986293903731556
6605,[KMB] ALLIANCE PRIMARY SCHOOL SHEUNG SHUI,22.500970000000002,114.14233,6605,0,Asia/Hong_Kong,FB,,0.9518404553676355
12538,"[CTB] REGALIA BAY, WONG MA KOK ROAD|[NWFB] REGALIA BAY, WONG MA KOK ROAD",22.20795,114.21356000000002,12538,0,Asia/Hong_Kong,FB,,0.9853454486251351
3152,"[NWFB] LIN HOK SIN KOON, SHEK O ROAD",22.24354,114.23676999999999,3152,0,Asia/Hong_Kong,FB,,0.7940565564877092
9807,"[CTB] TOI SHAN ASSOCIATION PRIMARY SCHOOL, SHEK PAI TAU ROAD|[KMB] TOI SHAN PRIMARY SCHOOL|[LWB] TOI SHAN PRIMARY SCHOOL",22.40128,113.97222,9807,0,Asia/Hong_Kong,FB,,0.9568433342917536
13044,"[KMB+CTB] YING SHUN HOUSE/<BR>YING SHUN HOUSE CHOI YING ESTATE, CHOI HA ROAD|[KMB] YING SHUN HOUSE",22.32676,114.21534,13044,0,Asia/Hong_Kong,FB,,0.7610959464893252
12937,[KMB] TAI WO STATION,22.450870000000002,114.161,12937,0,Asia/Hong_Kong,FB,,0.9997682870078421
12748,[KMB] HIN YIU ESTATE,22.3675,114.17506000000002,12748,0,Asia/Hong_Kong,FB,,0.9393676210529268
6697,[KMB] SANDY RIDGE,22.527810000000002,114.12526000000001,6697,0,Asia/Hong_Kong,FB,,0.9354903073741075
9435,[KMB+NWFB] CHEUNG ON BUS TERMINUS/<BR>CHEUNG ON ESTATE|[KMB] CHEUNG ON BUS TERMINUS|[LWB] CHEUNG ON BUS TERMINUS,22.361629999999998,114.10287,9435,0,Asia/Hong_Kong,FB,,0.7800412947496363
144,"[CTB] HEALTHY VILLAGE, KING'S ROAD|[KMB+CTB] HEALTHY VILLAGE/<BR>HEALTHY VILLAGE, KING'S ROAD|[KMB+NWFB] HEALTHY VILLAGE/<BR>HEALTHY VILLAGE, KING'S ROAD|[KMB] HEALTHY VILLAGE|[NWFB] HEALTHY VILLAGE, KING'S ROAD",22.29211,114.20636,144,0,Asia/Hong_Kong,FB,,0.9646226828882716
6110,"[KMB+NWFB] S.L.Y. BOWLING GREENS/<BR>SIU LEK YUEN ROAD BOWLING GREENS, SIU LEK YUEN ROAD|[KMB] S.L.Y. BOWLING GREENS|[NWFB] SIU LEK YUEN ROAD BOWLING GREENS, SIU LEK YUEN ROAD|[XB] BUS STOP NEAR BOWLING GREENS IN SIU LEK YUEN ROAD PLAYGROUND",22.38852,114.20383000000001,6110,0,Asia/Hong_Kong,FB,,0.8433740460047701
6051,[KMB] TSANG TAI UK|[LWB] TSANG TAI UK,22.37566,114.18891,6051,0,Asia/Hong_Kong,FB,,0.9594237472068478
10281,[KMB] HANG HAU STATION,22.31549,114.26463999999999,10281,0,Asia/Hong_Kong,FB,,0.9630305999279957
12403,"[CTB] HONG KONG WETLAND PARK, WETLAND PARK ROAD|[KMB] HONG KONG WETLAND PARK|[LWB] HONG KONG WETLAND PARK",22.46981,114.00278999999999,12403,0,Asia/Hong_Kong,FB,,0.8839943788602825
4120,[KMB] MOK CHEONG STREET,22.3234,114.1883,4120,0,Asia/Hong_Kong,FB,,0.985343570609441
12451,"[CTB] CLAGUE GARDEN ESTATE, , TAI CHUNG ROAD|[KMB] CLAGUE GARDEN ESTATE|[LWB] CLAGUE GARDEN ESTATE",22.371570000000002,114.10994,12451,0,Asia/Hong_Kong,FB,,0.9519285657963932
223,"[CTB] CITY GARDEN, ELECTRIC ROAD|[KMB+CTB] CITY GARDEN/<BR>CITY GARDEN, ELECTRIC ROAD|[KMB+NWFB] CITY GARDEN/<BR>CITY GARDEN, ELECTRIC ROAD",22.29085,114.19493,223,0,Asia/Hong_Kong,FB,,0.8823604297342961
12052,[NLB] CHEUNG SHA POLICE HEADQUARTER|[NLB] CHEUNG SHA POLICE HEADQUARTERS,22.233929999999997,113.96018000000001,12052,0,Asia/Hong_Kong,FB,,0.9650991563491288
9102,"[KMB+NWFB] YEE KUK STREET SHAM SHUI PO/<BR>YEE KUK STREET, YEN CHOW STREET|[KMB] YEE KUK STREET SHAM SHUI PO|[NWFB] YEE KUK STREET, YEN CHOW STREET",22.328960000000002,114.15833,9102,0,Asia/Hong_Kong,FB,,0.856980924947699
3244,"[CTB] CHIN HING HOUSE, FEI TSUI ROAD|[NWFB] CHAI WAN AMBULANCE STATION, FEI TSUI ROAD|[NWFB] CHIN HING HOUSE HING WAH ESTATE, FEI TSUI ROAD|[NWFB] CHIN HING HOUSE, FEI TSUI ROAD",22.26235,114.233,3244,0,Asia/Hong_Kong,FB,,0.8275864642616141
6296,[KMB] FU HENG ESTATE,22.45632,114.17063,6296,0,Asia/Hong_Kong,FB,,0.9644465259853792
9077,"[CTB] PRINCE EDWARD STATION, NATHAN ROAD|[KMB+CTB] PRINCE EDWARD STATION/<BR>PRINCE EDWARD STATION, NATHAN ROAD|[KMB+NWFB] PRINCE EDWARD STATION/<BR>PRINCE EDWARD STATION, NATHAN ROAD|[KMB] PRINCE EDWARD STATION|[NLB] PRINCE EDWARD MTR STATION|[NWFB] PRINCE EDWARD STATION, NATHAN ROAD",22.325779999999998,114.16791,9077,0,Asia/Hong_Kong,FB,,0.9335368439368636
8066,"[CTB] 72 CHUNG HOM KOK ROAD, CHUNG HOM KOK ROAD|[NWFB] 72 CHUNG HOM KOK ROAD, CHUNG HOM KOK ROAD",22.21699,114.20463000000001,8066,0,Asia/Hong_Kong,FB,,0.973501560279719
10000095,"[CTB] SHAN LAI COURT, LUNG MA ROAD|[KMB] SHAN LAI COURT",22.5036,114.16051999999999,10000095,0,Asia/Hong_Kong,FB,,0.41230791999616784
19,"[CTB] FENWICK STREET, GLOUCESTER ROAD|[KMB+CTB] FENWICK STREET/<BR>FENWICK STREET, GLOUCESTER ROAD|[KMB+NWFB] FENWICK STREET/<BR>FENWICK STREET, GLOUCESTER ROAD|[KMB] FENWICK STREET|[NWFB] FENWICK STREET, GLOUCESTER ROAD",22.27915,114.17081,19,0,Asia/Hong_Kong,FB,,0.9764748054693928
4187,"[CTB] FU YAU BUILDING, PO KONG VILLAGE ROAD|[KMB] FU YAU BUILDING",22.34414,114.19882,4187,0,Asia/Hong_Kong,FB,,0.9689453188360193
6686,[KMB] PAK SHEK AU INTERCHANGE,22.502779999999998,114.08565,6686,0,Asia/Hong_Kong,FB,,0.8270515853590178
7091,"[KMB+CTB] LOK WAH SOUTH ESTATE/<BR>LOK WAH SOUTH ESTATE, CHUN WAH ROAD|[KMB] LOK WAH SOUTH ESTATE",22.32091,114.22266,7091,0,Asia/Hong_Kong,FB,,0.9714574677297946
MTR-HIK,Hin Keng,22.36383523,114.170786,,,,MTR,,0.8326184773506609
133,"[CTB] STEWART ROAD, HENNESSY ROAD|[KMB+CTB] STEWART ROAD/<BR>STEWART ROAD, HENNESSY ROAD|[KMB+NWFB] STEWART ROAD/<BR>STEWART ROAD, HENNESSY ROAD|[KMB] STEWART ROAD|[NWFB] STEWART ROAD, HENNESSY ROAD",22.278029999999998,114.17623,133,0,Asia/Hong_Kong,FB,,0.9512884715408446
9825,"[CTB] HUNG KIU, TUEN MUN ROAD|[KMB] HUNG KIU|[LWB] HUNG KIU",22.40255,113.97729,9825,0,Asia/Hong_Kong,FB,,0.9129662580019366
9175,"[KMB] SHEK KIP MEI COMMERCIAL CENTRE|[NWFB] SHEK KIP MEI COMMERCIAL CENTRE, NAM CHEONG STREET",22.33236,114.1662,9175,0,Asia/Hong_Kong,FB,,0.9789931312957253
285,"[CTB] HACIENDA, TIN HAU TEMPLE ROAD|[NWFB] HACIENDA, TIN HAU TEMPLE ROAD",22.28738,114.19588999999999,285,0,Asia/Hong_Kong,FB,,0.9488731763964555
12475,[CTB] SHEK PAI WAN|[NWFB] SHEK PAI WAN,22.249879999999997,114.15718999999999,12475,0,Asia/Hong_Kong,FB,,0.9736204716624735
1242,[CTB] TUEN MUN FERRY PIER|[KMB] TUEN MUN PIER HEAD BUS TERMINUS|[LRTFeeder] TUEN MUN FERRY PIER,22.37254,113.96673,1242,0,Asia/Hong_Kong,FB,,0.9482266710564078
13170,"[KMB+CTB] YAN ON ESTATE/<BR>YAN ON ESTATE, HANG FAI STREET|[KMB+NWFB] YAN ON ESTATE/<BR>YAN ON ESTATE, HANG FAI STREET|[KMB] YAN ON ESTATE|[NWFB] YAN ON ESTATE, HANG FAI STREET",22.41498,114.22703,13170,0,Asia/Hong_Kong,FB,,0.8951954124603648
13038,"[CTB] WALTON ESTATE, CHAI WAN ROAD|[NWFB] WALTON ESTATE, CHAI WAN ROAD",22.26397,114.24003,13038,0,Asia/Hong_Kong,FB,,0.9231164743983052
106,"[CTB] QUARRY BAY STREET, KING'S ROAD|[KMB+CTB] QUARRY BAY STREET/<BR>QUARRY BAY STREET, KING'S ROAD|[KMB+NWFB] QUARRY BAY STREET/<BR>QUARRY BAY STREET, KING'S ROAD|[NWFB] QUARRY BAY STREET, KING'S ROAD",22.28473,114.21198999999999,106,0,Asia/Hong_Kong,FB,,0.8566450882846195
9824,"[CTB] HUNG KIU, TUEN MUN ROAD|[KMB] HUNG KIU|[LWB] HUNG KIU",22.401989999999998,113.97747,9824,0,Asia/Hong_Kong,FB,,0.9784739612726226
6458,[KMB] PO SUM PAI,22.47072,114.21085,6458,0,Asia/Hong_Kong,FB,,0.9326982530756818
9677,[KMB] WING HONG HOUSE FUK LOI ESTATE|[LWB] WING HONG HOUSE FUK LOI ESTATE,22.37438,114.11366000000001,9677,0,Asia/Hong_Kong,FB,,0.8930745151379714
1560,"[CTB] HING TSUI HOUSE HING WAH ESTATE, WAN TSUI ROAD|[KMB+CTB] HING TSUI HOUSE HING WAH ESTATE/<BR>HING TSUI HOUSE HING WAH ESTATE, WAN TSUI ROAD|[KMB+NWFB] HING TSUI HOUSE HING WAH ESTATE/<BR>HING TSUI HOUSE HING WAH ESTATE, WAN TSUI ROAD|[NWFB] HING TSUI HOUSE HING WAH ESTATE, WAN TSUI ROAD",22.26285,114.23454,1560,0,Asia/Hong_Kong,FB,,0.9293764530636983
11039,[NLB] MA PO PING ROAD JUNCTION,22.22652,113.93011000000001,11039,0,Asia/Hong_Kong,FB,,0.6749396966638439
526,"[CTB] SOUTH ISLAND SCHOOL, NAM FUNG ROAD",22.25422,114.18108000000001,526,0,Asia/Hong_Kong,FB,,0.9304384447971202
595,"[CTB] FLORA GARDEN, CHUN FAI ROAD",22.27361,114.19411000000001,595,0,Asia/Hong_Kong,FB,,0.8214283085402958
6050,[KMB] SHEK YING HOUSE CHUN SHEK ESTATE,22.37296,114.18558999999999,6050,0,Asia/Hong_Kong,FB,,0.7476260131372157
8326,[CTB] SHEUNG YEE ROAD|[KMB+CTB] SHEUNG YEE ROAD/<BR>SHEUNG YEE ROAD|[KMB+NWFB] SHEUNG YEE ROAD/<BR>SHEUNG YEE ROAD|[KMB] SHEUNG YEE ROAD,22.32103,114.20772,8326,0,Asia/Hong_Kong,FB,,0.9024489325573002
9777,[KMB] WALDORF GARDEN,22.39205,113.97938,9777,0,Asia/Hong_Kong,FB,,0.7932913743878424
3149,"[NWFB] MING WAH DAI HA, CHAI WAN ROAD",22.27577,114.23057,3149,0,Asia/Hong_Kong,FB,,0.9312458430874571
4051,"[CTB] TSIM SHA TSUI POLICE STATION, NATHAN ROAD|[KMB] TSIM SHA TSUI POLICE STATION",22.30281,114.17172,4051,0,Asia/Hong_Kong,FB,,0.8525069537475133
4246,[KMB] KOWLOON STATION BUS TERMINUS,22.30489,114.16287,4246,0,Asia/Hong_Kong,FB,,0.8114912062991545
MTR-SYP,Sai Ying Pun,22.28553236,114.142733,,,,MTR,,0.8196245856326649
13293,[KMB] ON TAI BUS TERMINUS,22.32672,114.23047,13293,0,Asia/Hong_Kong,FB,,0.9549616291571318
9637,[KMB] MEI WAN STREET|[LWB] MEI WAN STREET,22.376070000000002,114.11051,9637,0,Asia/Hong_Kong,FB,,0.9376263790467962
13304,"[CTB] SKY CITY INTERCHANGE, SKY CITY ROAD EAST|[LWB] SKY CITY INTERCHANGE",22.31595,113.94283999999999,13304,0,Asia/Hong_Kong,FB,,0.7218153684952093
774,"[KMB+CTB] QUEEN ELIZABETH HOSPITAL/<BR>QUEEN ELIZABETH HOSPITAL, WYLIE ROAD|[KMB] QUEEN ELIZABETH HOSPITAL",22.30911,114.17636999999999,774,0,Asia/Hong_Kong,FB,,0.9155329588964922
8246,"[CTB] UPPER SAU MAU PING, HIU KWONG STREET|[KMB] UPPER SAU MAU PING",22.31491,114.23546,8246,0,Asia/Hong_Kong,FB,,0.9040067143204438
510,"[CTB] IFC MALL, MAN CHEUNG STREET|[KMB+CTB] IFC MALL/<BR>IFC MALL, MAN CHEUNG STREET|[KMB+NWFB] IFC MALL/<BR>IFC MALL, MAN CHEUNG STREET|[NWFB] IFC MALL, MAN CHEUNG STREET",22.28548,114.15786999999999,510,0,Asia/Hong_Kong,FB,,0.9440307963764217
4209,[KMB] UN CHAU SHOPPING CENTRE,22.33832,114.15541999999999,4209,0,Asia/Hong_Kong,FB,,0.9073446298618109
6256,[KMB+CTB] CHUI YI STREET TAI PO/<BR>TING TAI ROAD|[KMB] CHUI YI STREET TAI PO|[KMB] TAI PO PUBLIC SWIMMING POOL,22.45372,114.16291000000001,6256,0,Asia/Hong_Kong,FB,,0.7994422631238859
10000055,[KMB] KWAI SHING CENTRAL BUS TERMINUS,22.36114,114.12236999999999,10000055,0,Asia/Hong_Kong,FB,,0.9831660662555013
12773,[DB] DISCOVERY BAY ROAD OPPOSITE DISCOVERY BAY INTERNATIONAL SCHOOL,22.3001,114.01195,12773,0,Asia/Hong_Kong,FB,,0.6461746417488149
1546,[CTB] SIU SAI WAN (ISLAND RESORT)|[KMB+CTB] ISLAND RESORT BUS TERMINUS/<BR>SIU SAI WAN (ISLAND RESORT)|[KMB+NWFB] ISLAND RESORT BUS TERMINUS/<BR>SIU SAI WAN (ISLAND RESORT)|[NWFB] SIU SAI WAN (ISLAND RESORT),22.2661,114.25096,1546,0,Asia/Hong_Kong,FB,,0.7629630162988782
13051,"[CTB] ON LEE, MOUNT DAVIS ROAD|[NWFB] ON LEE, MOUNT DAVIS ROAD",22.27581,114.12933999999998,13051,0,Asia/Hong_Kong,FB,,0.9327486401786155
9700,[KMB] HOI MEI BEACH|[LWB] HOI MEI BEACH,22.36445,114.07008,9700,0,Asia/Hong_Kong,FB,,0.9111679679886974
9229,"[CTB] YEE KOK COURT, CHEUNG SHA WAN ROAD|[KMB] KIU KIANG STREET SHAM SHUI PO",22.3329,114.15966,9229,0,Asia/Hong_Kong,FB,,0.954041456194475
408,"[CTB] HEADLAND ROAD, REPULSE BAY ROAD|[NWFB] HEADLAND ROAD, REPULSE BAY ROAD",22.225839999999998,114.20313999999999,408,0,Asia/Hong_Kong,FB,,0.8740541826151506
1187,"[CTB] FU ON HOUSE TAI WO HAU ESTATE, TAI WO HAU ROAD|[KMB] FU ON HOUSE TAI WO HAU ESTATE",22.36785,114.12443,1187,0,Asia/Hong_Kong,FB,,0.9577481385131971
3044,[CTB] HAPPY VALLEY (UPPER),22.264429999999997,114.1887,3044,0,Asia/Hong_Kong,FB,,0.9744029861673464
12057,[NLB] LO UK TSUEN,22.24333,113.97601,12057,0,Asia/Hong_Kong,FB,,0.9772903268039838
8156,"[CTB] VERBENA HEIGHTS, PO HONG ROAD|[KMB] VERBENA HEIGHTS|[NWFB] VERBENA HEIGHTS, PO HONG ROAD",22.321260000000002,114.25549,8156,0,Asia/Hong_Kong,FB,,0.9165396244055048
MTR-TWO,Tai Wo,22.4511,114.1611,,,,MTR,,0.9630296833550275
313,"[CTB] ABERDEEN TECHNICAL SCHOOL, WONG CHUK HANG ROAD|[KMB+CTB] ABERDEEN TECHNICAL SCHOOL/<BR>ABERDEEN TECHNICAL SCHOOL, WONG CHUK HANG ROAD|[NWFB] ABERDEEN TECHNICAL SCHOOL, WONG CHUK HANG ROAD",22.24873,114.16247,313,0,Asia/Hong_Kong,FB,,0.8996949647618283
407,"[CTB] WILSON TRAIL, STANLEY GAP ROAD",22.22352,114.20862,407,0,Asia/Hong_Kong,FB,,0.974369918812773
6314,[KMB] DAI WANG STREET TAI PO,22.45823,114.18365,6314,0,Asia/Hong_Kong,FB,,0.9488200946312104
27,"[CTB] DOUGLAS STREET, DES VOEUX ROAD CENTRAL|[KMB+CTB] DOUGLAS STREET/<BR>DOUGLAS STREET, DES VOEUX ROAD CENTRAL|[KMB+NWFB] DOUGLAS STREET/<BR>DOUGLAS STREET, DES VOEUX ROAD CENTRAL|[KMB] DOUGLAS STREET|[NWFB] DOUGLAS STREET, DES VOEUX ROAD CENTRAL",22.28325,114.1569,27,0,Asia/Hong_Kong,FB,,0.9656461968387244
9255,[KMB] JAO TSUNG-I ACADEMY,22.337770000000003,114.14173000000001,9255,0,Asia/Hong_Kong,FB,,0.8976252938201693
3144,"[NWFB] ABERDEEN CENTRE, CHENGTU ROAD",22.24835,114.15483,3144,0,Asia/Hong_Kong,FB,,0.9330536269132019
12444,[KMB] HUNG LENG TSUEN,22.51451,114.16717,12444,0,Asia/Hong_Kong,FB,,0.8556571866599852
993,"[CTB] BEACON HEIGHTS, LUNG CHEUNG ROAD|[KMB] BEACON HEIGHTS",22.3417,114.16711000000001,993,0,Asia/Hong_Kong,FB,,0.947745935009548
9159,[KMB] BROADCAST DRIVE BUS TERMINUS,22.3422,114.18046000000001,9159,0,Asia/Hong_Kong,FB,,0.7552732289576429
9004,"[KMB] PENINSULA HOTEL|[NWFB] PENINSULA HOTEL, NATHAN ROAD",22.295189999999998,114.17221,9004,0,Asia/Hong_Kong,FB,,0.9706130279803644
13385,[KMB] TAI PING BUS TERMINUS,22.4975,114.12516000000001,13385,0,Asia/Hong_Kong,FB,,0.9895942301701879
12466,"[CTB] TIN WAN STREET, ABERDEEN PRAYA ROAD|[KMB+CTB] TIN WAN STREET/<BR>TIN WAN STREET, ABERDEEN PRAYA ROAD|[NWFB] TIN WAN STREET, ABERDEEN PRAYA ROAD",22.24861,114.14813000000001,12466,0,Asia/Hong_Kong,FB,,0.8802660227842929
9437,"[KMB+NWFB] CHEUNG HANG ESTATE SHOPPING CENTRE/<BR>CHEUNG HANG ESTATE SHOPPING CENTRE, LIU TO ROAD|[KMB] CHEUNG HANG ESTATE SHOPPING CENTRE",22.35424,114.09755,9437,0,Asia/Hong_Kong,FB,,0.9165622384032283
1069,"[CTB] YING MING COURT, PO LAM ROAD NORTH|[KMB+CTB] YING MING COURT/<BR>YING MING COURT, PO LAM ROAD NORTH|[KMB] YING MING COURT|[NWFB] YING MING COURT, PO LAM ROAD NORTH",22.32704,114.25572,1069,0,Asia/Hong_Kong,FB,,0.9588758478143447
13096,[KMB] EMERALD GREEN,22.43883,114.02017,13096,0,Asia/Hong_Kong,FB,,0.9752062432957466
MTR-TAP,Tai Po Market,22.4446,114.1706,,,,MTR,,0.8286985936006407
9713,[KMB] SEA CREST VILLA PHASE 2,22.36538,114.05601999999999,9713,0,Asia/Hong_Kong,FB,,0.9353525025087939
6466,[KMB] SHAN LIU,22.4711,114.2223,6466,0,Asia/Hong_Kong,FB,,0.610685961307618
829,"[CTB] LAI LO HOUSE LAI KOK ESTATE, LAI CHI KOK ROAD|[KMB+CTB] LAI LO HOUSE/<BR>LAI LO HOUSE LAI KOK ESTATE, LAI CHI KOK ROAD|[KMB] LAI LO HOUSE",22.33156,114.15688,829,0,Asia/Hong_Kong,FB,,0.8450223004630565
6680,[KMB] SHEK KONG,22.43027,114.10556000000001,6680,0,Asia/Hong_Kong,FB,,0.9139989226127301
10173,[KMB] CHI MA LENG,22.43799,114.09733999999999,10173,0,Asia/Hong_Kong,FB,,0.9467375304849502
12580,"[CTB] SUN YAT SEN MEMORIAL PARK, CONNAUGHT ROAD WEST|[NWFB] SUN YAT SEN MEMORIAL PARK, CONNAUGHT ROAD WEST",22.28901,114.14451000000001,12580,0,Asia/Hong_Kong,FB,,0.8286877533909752
6574,[KMB] YIU MING HOUSE WAH MING ESTATE|[LWB] YIU MING HOUSE WAH MING ESTATE,22.48242,114.14147,6574,0,Asia/Hong_Kong,FB,,0.6944379972037379
1172,"[CTB] CHE FONG STREET, HING FONG ROAD|[KMB] CHE FONG STREET KWAI FONG|[LWB] CHE FONG STREET",22.35944,114.12789,1172,0,Asia/Hong_Kong,FB,,0.845093571908331
7094,[KMB] SAU NGA ROAD PLAYGROUND,22.32085,114.22678,7094,0,Asia/Hong_Kong,FB,,0.905810455568924
9152,[KMB] PANG CHING COURT,22.346120000000003,114.19061,9152,0,Asia/Hong_Kong,FB,,0.9782125056549656
10240,[CTB] LANTAU LINK BUS-BUS INTERCHANGE|[LWB+CTB] LANTAU LINK TOLL PLAZA/<BR>LANTAU LINK BUS-BUS INTERCHANGE|[LWB] LANTAU LINK TOLL PLAZA,22.339129999999997,114.04178,10240,0,Asia/Hong_Kong,FB,,0.8603716875424786
337,"[CTB] POK FU LAM RESERVOIR ROAD, POK FU LAM ROAD|[NWFB] POK FU LAM RESERVOIR ROAD, POK FU LAM ROAD",22.26251,114.13566000000002,337,0,Asia/Hong_Kong,FB,,0.8425959726224754
9579,[KMB] SHEK KAI HOUSE SHEK LEI ESTATE,22.36506,114.1404,9579,0,Asia/Hong_Kong,FB,,0.9260180993385231
MTR-PRE,Prince Edward,22.3245,114.1683,,,,MTR,,0.9749560954749221
859,"[CTB] SUN CHUI ESTATE, HUNG MUI KUK ROAD|[KMB+CTB] SUN CHUI ESTATE/<BR>SUN CHUI ESTATE, HUNG MUI KUK ROAD|[KMB+NWFB] SUN CHUI ESTATE/<BR>SUN CHUI ESTATE, HUNG MUI KUK ROAD|[KMB] SUN CHUI ESTATE",22.37035,114.1799,859,0,Asia/Hong_Kong,FB,,0.9433537039683118
1070,"[CTB] PO YAN HOUSE PO LAM ESTATE, PO LAM ROAD NORTH|[KMB+CTB] PO YAN HOUSE/<BR>PO YAN HOUSE, PO LAM ROAD NORTH|[KMB] PO YAN HOUSE|[NWFB] PO YAN HOUSE, PO LAM ROAD NORTH|[NWFB] PO YAN HOUSE, PO LAM ROAD NORTH",22.3263,114.25206999999999,1070,0,Asia/Hong_Kong,FB,,0.9640560010537107
13310,"[CTB] AUSTIN STATION, JORDAN ROAD|[KMB] AUSTIN STATION JORDAN ROAD|[NWFB] AUSTIN STATION, JORDAN ROAD",22.30631,114.16448000000001,13310,0,Asia/Hong_Kong,FB,,0.8647959543469336
10187,[KMB] SHUI LAU TIN|[LWB] SHUI LAU TIN,22.42835,114.08395,10187,0,Asia/Hong_Kong,FB,,0.953810558369242
12497,"[CTB] CHOI HUNG ESTATE, PRINCE EDWARD ROAD EAST|[KMB+NWFB] CHOI HUNG ESTATE/<BR>CHOI HUNG ESTATE, PRINCE EDWARD ROAD EAST|[KMB] CHOI HUNG ESTATE|[NWFB] CHOI HUNG ESTATE, PRINCE EDWARD ROAD EAST",22.33532,114.20423999999998,12497,0,Asia/Hong_Kong,FB,,0.9061158498657991
9627,[KMB] PAK TIN PA TSUEN,22.37591,114.11965,9627,0,Asia/Hong_Kong,FB,,0.6024045565139444
6541,[KMB] HANG HA PO,22.4574,114.14433999999999,6541,0,Asia/Hong_Kong,FB,,0.9792220841458151
268,"[CTB] EUSTON COURT, PARK ROAD|[NWFB] EUSTON COURT, PARK ROAD",22.28441,114.14498999999999,268,0,Asia/Hong_Kong,FB,,0.9366541340148803
6152,"[KMB+CTB] KAM TAI COURT/<BR>KAM TAI COURT, NING TAI ROAD|[KMB] KAM TAI COURT|[LWB] KAM TAI COURT|[NWFB] KAM TAI COURT, NING TAI ROAD",22.40885,114.2205,6152,0,Asia/Hong_Kong,FB,,0.8613182603384505
12001,[NLB] MUI WO COOKED FOOD MARKET,22.26604,114.00034,12001,0,Asia/Hong_Kong,FB,,0.7563509154791627
986,"[CTB] LUCKY PLAZA, WANG POK STREET|[KMB+CTB] LUCKY PLAZA/<BR>LUCKY PLAZA, WANG POK STREET|[KMB] LUCKY PLAZA|[LWB] LUCKY PLAZA",22.38283,114.19056,986,0,Asia/Hong_Kong,FB,,0.8616409024908468
6631,[KMB] CHOI NGAN HOUSE CHOI PO COURT,22.501279999999998,114.12375,6631,0,Asia/Hong_Kong,FB,,0.9116335732805328
4089,"[KMB+CTB] KWUN TONG TOWN CENTRE/<BR>KWUN TONG TOWN CENTRE, KWUN TONG ROAD|[KMB+NWFB] KWUN TONG TOWN CENTRE/<BR>KWUN TONG TOWN CENTRE, KWUN TONG ROAD|[KMB] KWUN TONG TOWN CENTRE",22.31309,114.22505,4089,0,Asia/Hong_Kong,FB,,0.9405993991199743
MTR-TAW,Tai Wai,22.3731,114.1786,,,,MTR,,0.8492113605874129
1052,"[KMB+CTB] HO MING COURT/<BR>HO MING COURT, KAI KING ROAD|[KMB] HO MING COURT",22.322,114.2594,1052,0,Asia/Hong_Kong,FB,,0.8886845096935632
9877,"[CTB] FUI SHA WAI, CASTLE PEAK ROAD|[KMB] FUI SHA WAI|[NLB] FUI SHA WAI",22.43843,114.00466999999999,9877,0,Asia/Hong_Kong,FB,,0.897704963288082
392,"[CTB] SANDS STREET, BELCHER'S STREET|[KMB+NWFB] SANDS STREET/<BR>SANDS STREET, BELCHER'S STREET",22.28363,114.13065,392,0,Asia/Hong_Kong,FB,,0.8960810394872025
8164,"[NWFB] CHOI KWAI HOUSE CHOI MING COURT, CHOI MING STREET|[NWFB] CHOI KWAI HOUSE, CHOI MING STREET",22.306639999999998,114.25341,8164,0,Asia/Hong_Kong,FB,,0.794863648282381
13324,[LRTFeeder] YUEN LONG SWIMMING POOL,22.44177,114.02203,13324,0,Asia/Hong_Kong,FB,,0.8838365508026709
9568,[KMB] CHEUNG WING ROAD,22.37041,114.13468999999999,9568,0,Asia/Hong_Kong,FB,,0.9346545067435829
13405,[KMB] KAI TAK GARDEN,22.33721,114.19509,13405,0,Asia/Hong_Kong,FB,,0.9188251709448745
12384,"[CTB] HONG KONG WETLAND PARK, WETLAND PARK ROAD|[KMB] HONG KONG WETLAND PARK|[LRTFeeder] LR WETLAND PARK STOP|[LWB] HONG KONG WETLAND PARK",22.46903,114.00276000000001,12384,0,Asia/Hong_Kong,FB,,0.8839992885612132
6468,[KMB] LO TSZ TIN (LUNG MEI BEACH),22.47169,114.22672,6468,0,Asia/Hong_Kong,FB,,0.3900887262547468
4223,"[CTB] JUNCTION ROAD, WATERLOO ROAD|[KMB+CTB] JUNCTION ROAD KOWLOON TONG/<BR>JUNCTION ROAD, WATERLOO ROAD|[KMB] JUNCTION ROAD KOWLOON TONG",22.33788,114.17928,4223,0,Asia/Hong_Kong,FB,,0.7484308155054056
644,"[CTB] SERENE COURT, VICTORIA ROAD|[NWFB] SERENE COURT, VICTORIA ROAD",22.28099,114.12071999999999,644,0,Asia/Hong_Kong,FB,,0.824229830796232
12645,[LRTFeeder] WAI CHOW SCHOOL,22.44949,114.02546000000001,12645,0,Asia/Hong_Kong,FB,,0.7930686425498615
13282,[KMB] KAW LIU,22.54281,114.15048999999999,13282,0,Asia/Hong_Kong,FB,,0.9441424843165014
9801,[KMB] TSING TIN PLAYGROUND|[LRTFeeder] TSING TIN PLAYGROUND,22.405839999999998,113.9672,9801,0,Asia/Hong_Kong,FB,,0.9673519862686522
552,"[CTB] TUNG SHING COURT, YIU HING ROAD|[KMB+CTB] TUNG SHING COURT/<BR>TUNG SHING COURT, YIU HING ROAD|[KMB+NWFB] TUNG SHING COURT/<BR>TUNG SHING COURT, YIU HING ROAD|[NWFB] TUNG SHING COURT, YIU HING ROAD",22.27608,114.22655,552,0,Asia/Hong_Kong,FB,,0.866422246324264
8101,"[CTB] HAU WONG ROAD, PRINCE EDWARD ROAD WEST|[KMB] HAU WONG ROAD",22.327720000000003,114.18896000000001,8101,0,Asia/Hong_Kong,FB,,0.9348218878983793
458,"[CTB] MEI FAI COURT SOUTH HORIZONS, SOUTH HORIZONS DRIVE|[KMB+CTB] MEI FAI COURT/<BR>MEI FAI COURT SOUTH HORIZONS, SOUTH HORIZONS DRIVE|[NWFB] MEI FAI COURT SOUTH HORIZONS, SOUTH HORIZONS DRIVE",22.24301,114.14773999999998,458,0,Asia/Hong_Kong,FB,,0.9271772316355631
6043,[KMB] SAN TIN VILLAGE,22.371170000000003,114.18253999999999,6043,0,Asia/Hong_Kong,FB,,0.6380772214768133
856,"[CTB] THE SALVATION ARMY TIN KA PING SCHOOL, SHA KOK STREET|[KMB+CTB] TIN KA PING PRIMARY SCHOOL/<BR>THE SALVATION ARMY TIN KA PING SCHOOL, SHA KOK STREET|[KMB] TIN KA PING PRIMARY SCHOOL|[LWB] TIN KA PING PRIMARY SCHOOL",22.375529999999998,114.19214,856,0,Asia/Hong_Kong,FB,,0.8813876414581154
282,[CTB] YEE KING ROAD|[KMB] YEE KING ROAD|[NWFB] YEE KING ROAD,22.28185,114.19398000000001,282,0,Asia/Hong_Kong,FB,,0.8819524508050556
4109,"[KMB+CTB] NAM CHEONG STREET SHAM SHUI PO/<BR>NAM CHEONG STREET, YU CHAU STREET",22.32836,114.16338999999999,4109,0,Asia/Hong_Kong,FB,,0.9233263017205995
6145,[KMB] GOLDFIELD INDUSTRIAL CTR.,22.396929999999998,114.19195,6145,0,Asia/Hong_Kong,FB,,0.9769958963922616
8111,"[KMB] ST. VINCENT CATHOLIC CHURCH|[NWFB] ST. VINCENT'S CATHOLIC CHURCH, HANG HAU ROAD",22.31993,114.27009,8111,0,Asia/Hong_Kong,FB,,0.8149228360393993
9875,"[CTB] TAI TAO TSUEN, CASTLE PEAK ROAD|[KMB] TAI TAO TSUEN|[NLB] TAI TAO TSUEN",22.43654,114.00204,9875,0,Asia/Hong_Kong,FB,,0.9243352161315591
8,"[CTB] FUNG HING HOUSE HING WAH ESTATE, WAN TSUI ROAD|[KMB+CTB] FUNG HING HOUSE HING WAH ESTATE/<BR>FUNG HING HOUSE HING WAH ESTATE, WAN TSUI ROAD|[KMB+NWFB] FUNG HING HOUSE HING WAH ESTATE/<BR>FUNG HING HOUSE HING WAH ESTATE, WAN TSUI ROAD|[NWFB] FUNG HING HOUSE HING WAH ESTATE, WAN TSUI ROAD",22.26246,114.23425,8,0,Asia/Hong_Kong,FB,,0.9295845998058755
13125,[KMB] WU KAI SHA NEW VILLAGE,22.42595,114.23846999999999,13125,0,Asia/Hong_Kong,FB,,0.8425598916655607
9833,[KMB] TIN LOK HOUSE TIN KING ESTATE|[LWB] TIN LOK HOUSE TIN KING ESTATE,22.40748,113.96486999999999,9833,0,Asia/Hong_Kong,FB,,0.8728265079929935
10000103,[KMB+NWFB] PAK TIN PUBLIC TRANSPORT INTERCHANGE/<BR>PAK TIN ESTATE|[KMB] PAK TIN PUBLIC TRANSPORT INTERCHANGE|[NWFB] PAK TIN ESTATE,22.33604,114.16581000000001,10000103,0,Asia/Hong_Kong,FB,,0.9384307453279479
255,"[CTB] HK ZOOLOGICAL & BOTANICAL GARDEN, GARDEN ROAD|[NWFB] HK ZOOLOGICAL & BOTANICAL GARDEN, GARDEN ROAD",22.27751,114.1577,255,0,Asia/Hong_Kong,FB,,0.8431758491177934
13268,[DB] SIENA AVENUE OPPOSITE CLUB SIENA,22.30603,114.01494,13268,0,Asia/Hong_Kong,FB,,0.8752581882362149
235,"[CTB] HEARD STREET, WAN CHAI ROAD|[KMB+CTB] HEARD STREET/<BR>HEARD STREET, WAN CHAI ROAD|[KMB+NWFB] HEARD STREET/<BR>HEARD STREET, WAN CHAI ROAD",22.27715,114.1771,235,0,Asia/Hong_Kong,FB,,0.9446172819498172
10000008,[LWB] TUEN MUM CHEK LAP KOK TUNNEL INTERCHANGE,22.368579999999998,113.94888999999999,10000008,0,Asia/Hong_Kong,FB,,0.9691713397304768
843,"[KMB+CTB] MOONBEAM TERRACE/<BR>MOONBEAM TERRACE, WATERLOO ROAD|[KMB] MOONBEAM TERRACE",22.342129999999997,114.17868,843,0,Asia/Hong_Kong,FB,,0.755502055852819
6628,[KMB] SHEUNG SHUI STATION,22.50104,114.12775,6628,0,Asia/Hong_Kong,FB,,0.9578974140438455
6506,"[CTB] MA MEI HA, SHA TAU KOK ROAD|[KMB] MA MEI HA",22.51695,114.17251,6506,0,Asia/Hong_Kong,FB,,0.8968789777382062
10253,[KMB] TUNG TAU ESTATE BUS TERMINUS,22.333270000000002,114.19291000000001,10253,0,Asia/Hong_Kong,FB,,0.8595646177999237
1183,[KMB] HAM TIN STREET TSUEN WAN,22.36935,114.11723,1183,0,Asia/Hong_Kong,FB,,0.9713467134104469
12644,[KMB] YUK YAT GARDEN|[LRTFeeder] YEUNG UK TSUEN|[LWB] YUK YAT GARDEN,22.45137,114.02561999999999,12644,0,Asia/Hong_Kong,FB,,0.9472558671499246
401,"[CTB] LIPPO CENTRE, COTTON TREE DRIVE|[KMB+NWFB] LIPPO CENTRE/<BR>LIPPO CENTRE, COTTON TREE DRIVE|[KMB] LIPPO CENTRE|[NWFB] LIPPO CENTRE, COTTON TREE DRIVE",22.279729999999997,114.16323,401,0,Asia/Hong_Kong,FB,,0.913146461550342
1370,"[CTB] SHA TIN PASS ROAD, LUNG CHEUNG ROAD|[KMB] SHA TIN PASS ROAD",22.34153,114.19553,1370,0,Asia/Hong_Kong,FB,,0.9342087309579307
6330,[KMB] DAI KWAI STREET TAI PO,22.46079,114.18824,6330,0,Asia/Hong_Kong,FB,,0.7825939752500045
476,"[CTB] YUE FAI ROAD, ABERDEEN MAIN ROAD|[KMB+CTB] YUE FAI ROAD/<BR>YUE FAI ROAD, ABERDEEN MAIN ROAD|[NWFB] YUE FAI ROAD, ABERDEEN MAIN ROAD",22.2486,114.15578000000001,476,0,Asia/Hong_Kong,FB,,0.8934246862506241
6603,[KMB] RHENISH CHURCH SECONDARY SCHOOL|[LWB] RHENISH CHURCH SECONDARY SCHOOL,22.49727,114.14121000000002,6603,0,Asia/Hong_Kong,FB,,0.9400579030287739
1537,"[CTB] ISLAND ROAD, REPULSE BAY ROAD|[NWFB] ISLAND ROAD, REPULSE BAY ROAD",22.23872,114.18948999999999,1537,0,Asia/Hong_Kong,FB,,0.8794071701701406
4219,[KMB] THE HONG KONG BUDDHIST HOSPITAL,22.33598,114.18876000000002,4219,0,Asia/Hong_Kong,FB,,0.8182574974321118
12686,[LRTFeeder] FUNG KONG TSUEN,22.459570000000003,113.99027,12686,0,Asia/Hong_Kong,FB,,0.35309237912162483
295,"[CTB] EVELYN TOWERS, CLOUD VIEW ROAD|[KMB] EVELYN TOWERS|[NWFB] EVELYN TOWERS, CLOUD VIEW ROAD",22.28507,114.19622,295,0,Asia/Hong_Kong,FB,,0.9896477038800945
9074,[KMB] RECLAMATION STREET,22.32011,114.16739,9074,0,Asia/Hong_Kong,FB,,0.897162991685855
4205,"[KMB] PEI HO STREET|[NWFB] PEI HO STREET, UN CHAU STREET",22.33142,114.16433,4205,0,Asia/Hong_Kong,FB,,0.9331068669488853
998,"[CTB] SHEUNG CHI HOUSE SHEUNG TAK ESTATE, TONG MING STREET|[CTB] SHEUNG CHI HOUSE, TONG MING STREET|[KMB] SHEUNG CHI HOUSE|[NWFB] SHEUNG CHI HOUSE SHEUNG TAK ESTATE, TONG MING STREET|[NWFB] SHEUNG CHI HOUSE, TONG MING STREET",22.311329999999998,114.26086000000001,998,0,Asia/Hong_Kong,FB,,0.850075982589714
9826,[KMB] PRIME VIEW GARDEN|[LRTFeeder] PRIME VIEW GARDEN|[LWB] PRIME VIEW GARDEN,22.4032,113.97921000000001,9826,0,Asia/Hong_Kong,FB,,0.9693432838620691
6339,[KMB] WONG YUE TAN,22.46225,114.20581000000001,6339,0,Asia/Hong_Kong,FB,,0.7057487006043103
12907,"[KMB+NWFB] VILLA ESPLANADA/<BR>VILLA ESPLANADA, TSING KING ROAD|[KMB] VILLA ESPLANADA|[LWB] VILLA ESPLANADA",22.36102,114.10583999999999,12907,0,Asia/Hong_Kong,FB,,0.9206973998971723
4181,"[CTB] SHEUNG HEUNG ROAD, TO KWA WAN ROAD|[KMB+NWFB] LOK SHAN ROAD/<BR>HONOUR BUILDING, TO KWA WAN ROAD|[KMB+NWFB] SHEUNG HEUNG ROAD/<BR>SHEUNG HEUNG ROAD, TO KWA WAN ROAD|[KMB] LOK SHAN ROAD|[KMB] SHEUNG HEUNG ROAD",22.31725,114.19039,4181,0,Asia/Hong_Kong,FB,,0.9701664106170039
6657,[KMB] TA SHEK WU TSUEN,22.46487,114.10721000000001,6657,0,Asia/Hong_Kong,FB,,0.7929267803934251
3159,"[NWFB] SHEK O POLICE STATION, SHEK O ROAD",22.2351,114.24895,3159,0,Asia/Hong_Kong,FB,,0.9599223668442679
11092,[NLB] SIU HO WAN WATER TREATMENT WORKS,22.313670000000002,113.99571,11092,0,Asia/Hong_Kong,FB,,0.5785184405758486
10233,[NWFB] IRVING STREET,22.27891,114.18642,10233,0,Asia/Hong_Kong,FB,,0.9272369396015102
10000052,[KMB+CTB] KAI YIP BUS TERMINUS/<BR>KAI YIP ESTATE|[KMB] KAI YIP BUS TERMINUS,22.328670000000002,114.20855,10000052,0,Asia/Hong_Kong,FB,,0.9800359872423839
12514,[NLB] MA PO PING VILLAGE,22.22984,113.92809,12514,0,Asia/Hong_Kong,FB,,0.4349717356506106
10152,[KMB] KAM TIN CLINIC,22.44023,114.07478,10152,0,Asia/Hong_Kong,FB,,0.9551374593004219
12866,[LRTFeeder] RIVER TRADE TERMINAL,22.36852,113.93826999999999,12866,0,Asia/Hong_Kong,FB,,0.17907348977989374
9761,"[CTB] GLORIOUS GARDEN, LUNG MUN ROAD|[KMB] GLORIOUS GARDEN|[LRTFeeder] GLORIOUS GARDEN|[LWB] GLORIOUS GARDEN",22.38346,113.96443000000001,9761,0,Asia/Hong_Kong,FB,,0.823369540588428
13124,[KMB] ELEGANTIA COLLEGE,22.4936,114.12446000000001,13124,0,Asia/Hong_Kong,FB,,0.8505469844836155
9960,[KMB] TAI TONG ROAD YUEN LONG|[LWB] TAI TONG ROAD,22.44436,114.02778,9960,0,Asia/Hong_Kong,FB,,0.9463181277035349
9456,"[KMB+NWFB] CHING SHING COURT/<BR>CHING SHING COURT, CHING HONG ROAD|[KMB] CHING SHING COURT|[LWB] CHING SHING COURT",22.34889,114.1032,9456,0,Asia/Hong_Kong,FB,,0.9444578200861015
10236,"[CTB] HOI FU COURT, HOI WANG ROAD|[KMB+NWFB] HOI FU COURT/<BR>HOI FU COURT, HOI WANG ROAD|[KMB] HOI FU COURT",22.3163,114.16389,10236,0,Asia/Hong_Kong,FB,,0.9739826777830387
MTR-LOF,Lok Fu,22.338,114.1871,,,,MTR,,0.8992070036729408
4183,"[KMB+NWFB] JUBILANT PLACE/<BR>JUBILANT PLACE, MA TAU KOK ROAD|[KMB] JUBILANT PLACE",22.32206,114.18935,4183,0,Asia/Hong_Kong,FB,,0.8358726795727656
3066,[NWFB] NGAN MOK STREET,22.28399,114.19221999999999,3066,0,Asia/Hong_Kong,FB,,0.9356172879553742
MTR-HFC,Heng Fa Chuen,22.2769,114.2398,,,,MTR,,0.8802440393056662
9252,"[KMB] PRATAS STREET|[NWFB] TONKIN STREET, CASTLE PEAK ROAD",22.33625,114.15925,9252,0,Asia/Hong_Kong,FB,,0.9201950791882677
10225,"[KMB+CTB] ARRAN STREET MONG KOK/<BR>ARRAN STREET, NATHAN ROAD|[KMB+NWFB] ARRAN STREET MONG KOK/<BR>ARRAN STREET, NATHAN ROAD",22.3232,114.16846000000001,10225,0,Asia/Hong_Kong,FB,,0.9691205852287103
10217,[KMB] TAI MO SHAN COUNTRY PARK,22.40754,114.10507,10217,0,Asia/Hong_Kong,FB,,0.866050029958684
13279,[CTB] HOI BUN ROAD PARK|[KMB] HOI BUN ROAD PARK,22.3148,114.21511000000001,13279,0,Asia/Hong_Kong,FB,,0.8361150772821343
11012,[NLB] NGONG PING VILLAGE,22.25545,113.90417,11012,0,Asia/Hong_Kong,FB,,0.8205004803747582
6479,[KMB] CHUNG PUI,22.48551,114.24337,6479,0,Asia/Hong_Kong,FB,,0.7731744271610498
1403,"[CTB] CHUN TOK SCHOOL, HAMMER HILL ROAD|[KMB+NWFB] CHUN TOK SCHOOL/<BR>CHUN TOK SCHOOL, HAMMER HILL ROAD|[KMB] CHUN TOK SCHOOL",22.33977,114.20727,1403,0,Asia/Hong_Kong,FB,,0.9746077604367045
8150,"[KMB+NWFB] HANG HAU (NORTH)(TSEUNG KWAN O HOSPITAL)/<BR>HANG HAU (NORTH), PO NING ROAD|[KMB] HANG HAU (NORTH)(TSEUNG KWAN O HOSPITAL)|[NWFB] HANG HAU (NORTH), PO NING ROAD",22.31782,114.26918,8150,0,Asia/Hong_Kong,FB,,0.931061604017952
6288,"[KMB+CTB] TREASURE GARDEN/<BR>TREASURE GARDEN, ON CHEE ROAD|[KMB] TREASURE GARDEN|[LWB] TREASURE GARDEN",22.452939999999998,114.16653000000001,6288,0,Asia/Hong_Kong,FB,,0.9695174575082876
6596,"[KMB+CTB] GLAMOUR GARDEN/<BR>GLAMOUR GARDEN, PAK WO ROAD|[KMB] GLAMOUR GARDEN|[LWB] GLAMOUR GARDEN",22.49536,114.13108000000001,6596,0,Asia/Hong_Kong,FB,,0.9277020130787124
3081,"[CTB] NORTH POINT SERVICE RESERVOIR PLAYGROUND, TIN HAU TEMPLE ROAD|[NWFB] NORTH POINT SERVICE RESERVOIR PLAYGROUND, TIN HAU TEMPLE ROAD",22.28815,114.20105,3081,0,Asia/Hong_Kong,FB,,0.8664659521170743
9635,[KMB] DISCOVERY PARK|[LWB] DISCOVERY PARK|[XB] TSUEN WAN CASTLE PEAK ROAD NO. 388,22.37487,114.11308999999999,9635,0,Asia/Hong_Kong,FB,,0.8928596553163751
1146,[KMB+CTB] DIAMOND HILL STATION BUS TERMINUS/<BR>DIAMOND HILL STATION|[KMB] DIAMOND HILL STATION BUS TERMINUS,22.34078,114.20155,1146,0,Asia/Hong_Kong,FB,,0.8987429513097048
48,"[CTB] CHONG GENE HANG COLLEGE, ISLAND EASTERN CORRIDOR|[NWFB] CHONG GENE HANG COLLEGE, ISLAND EASTERN CORRIDOR",22.26803,114.2376,48,0,Asia/Hong_Kong,FB,,0.9650899502019813
11035,[NLB] SHUI HAU VILLAGE (EAST),22.22186,113.91573999999999,11035,0,Asia/Hong_Kong,FB,,0.5175153805094425
6260,[KMB] UPTOWN PLAZA,22.443379999999998,114.16918999999999,6260,0,Asia/Hong_Kong,FB,,0.9468101113574846
8276,"[KMB] TAI PO TSAI VILLAGE|[NWFB] TAI PO TSAI TSUEN, CLEAR WATER BAY ROAD",22.33645,114.25945,8276,0,Asia/Hong_Kong,FB,,0.9118603855020733
6682,[KMB] SHEUNG TSUEN PLAYGROUND|[LWB] SHEUNG TSUEN PLAYGROUND,22.43147,114.10293,6682,0,Asia/Hong_Kong,FB,,0.9573974429713141
9701,[KMB] HOI MEI BEACH|[LWB] HOI MEI BEACH,22.364639999999998,114.06947,9701,0,Asia/Hong_Kong,FB,,0.9101169451002814
8185,[KMB] LEI YUE MUN PLAZA,22.29638,114.2397,8185,0,Asia/Hong_Kong,FB,,0.8046868244539902
6520,[KMB] ON LOK TSUEN,22.49969,114.14556999999999,6520,0,Asia/Hong_Kong,FB,,0.7966042194552337
3257,"[NWFB] CHAI WAN INDUSTRIAL ESTATE, CHEUNG LEE STREET",22.26445,114.23637,3257,0,Asia/Hong_Kong,FB,,0.9403131285298495
9704,[KMB] SHAM TSZ STREET SHAM TSENG|[LWB] SHAM TSZ STREET SHAM TSENG,22.366989999999998,114.06306000000001,9704,0,Asia/Hong_Kong,FB,,0.9635305400656233
4232,"[KMB] PARK LANE|[NWFB] PARK LANE, NATHAN ROAD",22.30175,114.17176,4232,0,Asia/Hong_Kong,FB,,0.970730065560279
8116,[KMB] SILVER STRAND MART,22.32021,114.2721,8116,0,Asia/Hong_Kong,FB,,0.8463454636234201
1508,"[NWFB] LOK KU ROAD, HOLLYWOOD ROAD",22.28541,114.14858000000001,1508,0,Asia/Hong_Kong,FB,,0.8900564219724407
9952,[KMB] YOHO MALL I|[LWB] YOHO MALL I,22.44426,114.03608999999999,9952,0,Asia/Hong_Kong,FB,,0.8530363952517027
10140,"[CTB] KO PO TSUEN, KAM TIN ROAD|[KMB] KO PO TSUEN|[LWB] KO PO TSUEN",22.4403,114.05631000000001,10140,0,Asia/Hong_Kong,FB,,0.9702608655165736
10166,[KMB] HA CHE,22.446189999999998,114.09558999999999,10166,0,Asia/Hong_Kong,FB,,0.9249086360291465
9460,"[KMB+NWFB] YEE YIP HOUSE TSING YI ESTATE/<BR>YEE YIP HOUSE TSING YI ESTATE, FUNG SHUE WO ROAD|[KMB] YEE YIP HOUSE TSING YI ESTATE|[LWB] YEE YIP HOUSE TSING YI ESTATE",22.35418,114.1022,9460,0,Asia/Hong_Kong,FB,,0.9378048717780283
3089,"[CTB] MARINA LODGE, SHAU KEI WAN ROAD|[NWFB] MARINA LODGE, SHAU KEI WAN ROAD",22.27796,114.22668999999999,3089,0,Asia/Hong_Kong,FB,,0.9750178403626094
1109,[KMB+CTB] SHUN LEE BUS TERMINUS/<BR>SHUN LEE ESTATE|[KMB] SHUN LEE BUS TERMINUS,22.33127,114.22653000000001,1109,0,Asia/Hong_Kong,FB,,0.871734803800799
12044,[NLB] TUNG CHUNG AU MANAGEMENT OFFICE,22.26396,113.93741999999999,12044,0,Asia/Hong_Kong,FB,,0.8963251016401182
12671,[LRTFeeder] SHUI CHIU SAN TSUEN,22.42247,114.02986999999999,12671,0,Asia/Hong_Kong,FB,,0.9860901285973293
6010,"[CTB] HIN TIN VILLAGE, HIN KENG STREET|[KMB+NWFB] HIN TIN VILLAGE/<BR>HIN TIN VILLAGE, HIN KENG STREET|[KMB] HIN TIN VILLAGE",22.3629,114.17256,6010,0,Asia/Hong_Kong,FB,,0.8086316341773148
13172,[KMB] NGA CHEUNG ROAD (WESTERN HARBOUR CROSSING),22.30459,114.16028,13172,0,Asia/Hong_Kong,FB,,0.8422015129616857
12652,[LRTFeeder] MANHATTAN PLAZA,22.44088,114.02944,12652,0,Asia/Hong_Kong,FB,,0.6190652066033433
244,"[CTB] HONG KONG PARK, COTTON TREE DRIVE|[KMB+CTB] HONG KONG PARK/<BR>HONG KONG PARK, COTTON TREE DRIVE|[NWFB] HONG KONG PARK, COTTON TREE DRIVE",22.277639999999998,114.16038999999999,244,0,Asia/Hong_Kong,FB,,0.8661676182883942
617,"[CTB] THE ZENITH, QUEEN'S ROAD EAST|[KMB+NWFB] THE ZENITH/<BR>THE ZENITH, QUEEN'S ROAD EAST|[NWFB] THE ZENITH, QUEEN'S ROAD EAST",22.27449,114.17391,617,0,Asia/Hong_Kong,FB,,0.8211356822270098
6524,[KMB] FANLING CENTRE|[LWB] FANLING CENTRE,22.490879999999997,114.14249,6524,0,Asia/Hong_Kong,FB,,0.9639033340659031
11031,[NLB] SHEK PIK POLICE STAND,22.22595,113.89823,11031,0,Asia/Hong_Kong,FB,,0.007117160347205036
6188,[KMB] SAI KENG,22.41763,114.2661,6188,0,Asia/Hong_Kong,FB,,0.9053579211687804
12994,"[CTB] HING WO STREET, SHEK PAI WAN ROAD|[KMB+CTB] HING WO STREET/<BR>HING WO STREET, SHEK PAI WAN ROAD|[NWFB] HING WO STREET, SHEK PAI WAN ROAD",22.24974,114.14777,12994,0,Asia/Hong_Kong,FB,,0.9012500978034812
9486,[KMB] WO KWAI LANE|[LWB] WO KWAI LANE,22.367079999999998,114.13305,9486,0,Asia/Hong_Kong,FB,,0.8526681640318454
6519,[KMB] GREEN CODE,22.50085,114.14636000000002,6519,0,Asia/Hong_Kong,FB,,0.7964030074963151
9608,[KMB] WAI TSUEN SPORTS CENTRE,22.37314,114.12245,9608,0,Asia/Hong_Kong,FB,,0.8471785168975028
6238,[KMB] CHUNG CHI COLLEGE,22.41324,114.20843,6238,0,Asia/Hong_Kong,FB,,0.9240537993327989
9207,"[KMB] HEUNG TO MIDDLE SCHOOL|[NWFB] HEUNG TO MIDDLE SCHOOL, TO YUEN STREET",22.33522,114.17421000000002,9207,0,Asia/Hong_Kong,FB,,0.9791101965330472
1347,[CTB] CHEK LAP KOK SOUTH ROAD|[LWB] CHEK LAP KOK SOUTH ROAD|[NLB] CHEK LAP KOK SOUTH ROAD,22.29191,113.92873,1347,0,Asia/Hong_Kong,FB,,0.9526638085899619
3109,"[CTB] 110 REPULSE BAY ROAD, REPULSE BAY ROAD|[NWFB] 110 REPULSE BAY ROAD, REPULSE BAY ROAD",22.23339,114.20053,3109,0,Asia/Hong_Kong,FB,,0.8982161468398699
8210,"[KMB] HOW MING STREET, KWUN TONG|[NWFB] HOW MING STREET, WAI YIP STREET",22.312839999999998,114.21865,8210,0,Asia/Hong_Kong,FB,,0.9212816473324439
13081,"[CTB] TUEN MUN ROAD BUS-BUS INTERCHANGE, TUEN MUN ROAD|[KMB] TUEN MUN ROAD INTERCHANGE",22.36226,114.01605,13081,0,Asia/Hong_Kong,FB,,0.9274035636459654
6075,"[KMB+CTB] POK HONG BUS TERMINUS/<BR>POK HONG ESTATE, YAT TAI STREET|[KMB] POK HONG BUS TERMINUS|[LWB] POK HONG B/T|[LWB] POK HONG BUS TERMINUS",22.37751,114.19591000000001,6075,0,Asia/Hong_Kong,FB,,0.9039609968362474
10000028,[KMB] SUN CHUI BUS TERMINUS,22.36758,114.18056999999999,10000028,0,Asia/Hong_Kong,FB,,0.9713523105935965
12977,"[NWFB] CHAI WAN AMBULANCE STATION, FEI TSUI ROAD",22.26259,114.23308,12977,0,Asia/Hong_Kong,FB,,0.9625169950250552
197,"[CTB] TONG MI ROAD, LAI CHI KOK ROAD|[KMB+CTB] TONG MI ROAD MONG KOK/<BR>TONG MI ROAD, LAI CHI KOK ROAD|[KMB] TONG MI ROAD MONG KOK",22.324379999999998,114.16573999999999,197,0,Asia/Hong_Kong,FB,,0.9291870405832103
12947,"[CTB] SANDY BAY ROAD, VICTORIA ROAD|[NWFB] SANDY BAY ROAD, VICTORIA ROAD",22.27293,114.1273,12947,0,Asia/Hong_Kong,FB,,0.891846326976478
10320,"[CTB] CASCADES, CHUNG HAU STREET|[KMB+NWFB] CASCADES/<BR>CASCADES, CHUNG HAU STREET|[KMB] CASCADES",22.315520000000003,114.17986,10320,0,Asia/Hong_Kong,FB,,0.8237458032181406
13045,"[KMB+CTB] YING ON HOUSE/<BR>YING ON HOUSE CHOI YING ESTATE, CHOI HA ROAD|[KMB] YING ON HOUSE",22.329060000000002,114.21503,13045,0,Asia/Hong_Kong,FB,,0.9570858518675327
12428,[KMB+NWFB] HOI LAI ESTATE BUS TERMINUS/<BR>HOI LAI ESTATE|[KMB] HOI LAI ESTATE BUS TERMINUS|[NWFB] HOI LAI ESTATE,22.33219,114.14733000000001,12428,0,Asia/Hong_Kong,FB,,0.9130919584781682
6306,[KMB] FU SHIN ESTATE BUS TERMINUS,22.45414,114.1746,6306,0,Asia/Hong_Kong,FB,,0.9351989772208449
633,[CTB] CAUSEWAY BAY (WHITFIELD ROAD),22.28614,114.19068999999999,633,0,Asia/Hong_Kong,FB,,0.9232024293231547
8305,"[KMB] SAI KUNG POLICE STATION|[NWFB] SAI KUNG POLICE STATION, FUK MAN ROAD",22.38361,114.2714,8305,0,Asia/Hong_Kong,FB,,0.8783378754885449
10180,[KMB] DAO UK TSUEN|[LWB] DAO UK TSUEN,22.429779999999997,114.09539,10180,0,Asia/Hong_Kong,FB,,0.8741510905467561
12681,[LRTFeeder] SHEK KONG WAI,22.449460000000002,113.99423,12681,0,Asia/Hong_Kong,FB,,0.975093827394632
9062,"[CTB] HOUSING AUTHORITY HEADQUARTERS, FAT KWONG STREET|[KMB] HOUSING AUTHORITY HEADQUARTERS",22.31549,114.18128999999999,9062,0,Asia/Hong_Kong,FB,,0.9665346485541653
403,"[CTB] ST. STEPHEN COLLEGE PREPARATORY SCHOOL, WONG MA KOK ROAD|[NWFB] ST. STEPHEN COLLEGE PREPARATORY SCHOOL, WONG MA KOK ROAD",22.21249,114.21659,403,0,Asia/Hong_Kong,FB,,0.533985447189948
9196,"[KMB+NWFB] MAN LOK HOUSE/<BR>MAN LOK HOUSE TAI HANG SAI ESTATE, WOH CHAI STREET|[KMB] MAN LOK HOUSE|[NWFB] MAN LOK HOUSE TAI HANG SAI ESTATE, WOH CHAI STREET",22.33161,114.16957,9196,0,Asia/Hong_Kong,FB,,0.9500924401235689
1245,"[CTB] HARVEST GARDEN, CASTLE PEAK ROAD|[KMB] HARVEST GARDEN|[LRTFeeder] HARVEST GARDEN|[LWB] HARVEST GARDEN",22.38522,113.98108,1245,0,Asia/Hong_Kong,FB,,0.8597213722101814
4262,[KMB] SHUN YUNG STREET,22.31036,114.18423,4262,0,Asia/Hong_Kong,FB,,0.9680713511318176
9799,[KMB] SHEK PAI STATION|[LRTFeeder] LR SHEK PAI STOP|[LWB] SHEK PAI STATION,22.40203,113.96784,9799,0,Asia/Hong_Kong,FB,,0.9613746247234572
13138,[KMB] YIU ON ESTATE|[LWB] YIU ON ESTATE,22.41933,114.2294,13138,0,Asia/Hong_Kong,FB,,0.9538692074359784
13064,[CTB] LOHAS PARK|[KMB] LOHAS PARK STATION|[NWFB] LOHAS PARK,22.2964,114.2684,13064,0,Asia/Hong_Kong,FB,,0.8752953170938285
10000034,[LWB] AIRPORT (GTC) BUS TERMINUS,22.3126,113.93751999999999,10000034,0,Asia/Hong_Kong,FB,,0.9162190128260197
7112,"[CTB] WONG CHUK HANG RECREATION GROUND, WONG CHUK HANG ROAD|[KMB+CTB] WONG CHUK HANG RECREATION GROUND/<BR>WONG CHUK HANG RECREATION GROUND, WONG CHUK HANG ROAD|[NWFB] WONG CHUK HANG RECREATION GROUND, WONG CHUK HANG ROAD",22.25052,114.17052,7112,0,Asia/Hong_Kong,FB,,0.9372829980751539
9095,"[KMB+CTB] TUNG CHAU STREET PARK/<BR>TUNG CHAU STREET PARK, YEN CHOW STREET|[KMB+NWFB] TUNG CHAU STREET PARK/<BR>TUNG CHAU STREET PARK, YEN CHOW STREET|[KMB] TUNG CHAU STREET PARK|[NWFB] TUNG CHAU STREET PARK, YEN CHOW STREET",22.32781,114.1576,9095,0,Asia/Hong_Kong,FB,,0.8601941972083986
174,"[CTB] TAI HONG HOUSE, TAI HONG STREET|[KMB+CTB] TAI HONG HOUSE/<BR>TAI HONG HOUSE, TAI HONG STREET|[KMB+NWFB] TAI HONG HOUSE/<BR>TAI HONG HOUSE, TAI HONG STREET|[NWFB] TAI HONG HOUSE, TAI HONG STREET",22.28331,114.22171999999999,174,0,Asia/Hong_Kong,FB,,0.8943066848287504
4155,[KMB] KOON WAH LANE,22.347160000000002,114.20212,4155,0,Asia/Hong_Kong,FB,,0.8715579865684603
12658,[LRTFeeder] SHAM CHUNG TSUEN,22.43313,114.02853999999999,12658,0,Asia/Hong_Kong,FB,,0.6382550824117246
10000104,[LWB] TONG HANG ROAD,22.41196,113.97032,10000104,0,Asia/Hong_Kong,FB,,0.9597160026932319
853,[KMB+CTB] SHA TIN STATION BUS TERMINUS/<BR>SHA TIN STATION|[KMB] SHA TIN STATION BUS TERMINUS|[NWFB] SHA TIN STATION,22.38354,114.188,853,0,Asia/Hong_Kong,FB,,0.9528026304919233
9964,[KMB] HI LEE PATH YUEN LONG|[NLB] HI LEE PATH,22.44461,114.02552,9964,0,Asia/Hong_Kong,FB,,0.9072098785958554
13337,[KMB] SAU LOK HOUSE,22.3218,114.23052,13337,0,Asia/Hong_Kong,FB,,0.9683536049980508
9617,[KMB] SAM TUNG UK RESITE VILLAGE,22.37987,114.12959,9617,0,Asia/Hong_Kong,FB,,0.9550912034209326
9974,[LRTFeeder] PING CHEONG PATH (MTR LONG PING STATION),22.44754,114.02276,9974,0,Asia/Hong_Kong,FB,,0.9521492847848523
13417,"[CTB] SZE MEI STREET, CHOI HUNG ROAD|[KMB+NWFB] SZE MEI STREET, SAN PO KONG/<BR>SZE MEI STREET, CHOI HUNG ROAD|[KMB] SZE MEI STREET, SAN PO KONG",22.33814,114.20183999999999,13417,0,Asia/Hong_Kong,FB,,0.9523141323748356
12455,"[CTB] CHAN PAK SHA SCHOOL, NAM LONG SHAN ROAD|[CTB] WONG CHUK HANG|[CTB] WONG CHUK HANG (NAM LONG SHAN)|[KMB+CTB] CHAN PAK SHA SCHOOL/<BR>CHAN PAK SHA SCHOOL, NAM LONG SHAN ROAD|[NWFB] WONG CHUK HANG",22.2457,114.16673999999999,12455,0,Asia/Hong_Kong,FB,,0.9131084767005473
1253,[CTB] TIN SHUI WAI TOWN CENTRE|[KMB] TIN SHUI WAI TOWN CENTRE|[LWB] TIN SHUI WAI TOWN CENTRE|[NLB] TIN SHUI WAI TOWN CENTRE,22.45851,114.0019,1253,0,Asia/Hong_Kong,FB,,0.7579604285652622
343,"[CTB] WOODBURY COURT, POK FU LAM ROAD|[NWFB] WOODBURY COURT, POK FU LAM ROAD",22.26463,114.13328999999999,343,0,Asia/Hong_Kong,FB,,0.9264924986531157
13227,"[KMB] WU KAI SHA ROAD|[NWFB] DOUBLE COVE (PHASE 4), WU KAI SHA ROAD",22.43093,114.24075,13227,0,Asia/Hong_Kong,FB,,0.5015632642451927
11071,[NLB] UPPER WAN LUNG,22.223679999999998,113.92076999999999,11071,0,Asia/Hong_Kong,FB,,0.8884953847529481
1511,"[NWFB] PEEL STREET, HOLLYWOOD ROAD",22.283070000000002,114.15276999999999,1511,0,Asia/Hong_Kong,FB,,0.7862800299917077
233,[CTB] ADMIRALTY (RODNEY STREET),22.278779999999998,114.16603,233,0,Asia/Hong_Kong,FB,,0.8928591765783116
978,"[CTB] HACTL, CHUN WAN ROAD|[LWB] HACTL|[NLB] HACTL",22.29703,113.9296,978,0,Asia/Hong_Kong,FB,,0.7675806220095758
3236,"[CTB] SWISS TOWERS, TAI HANG ROAD|[NWFB] SWISS TOWERS, TAI HANG ROAD",22.272920000000003,114.19187,3236,0,Asia/Hong_Kong,FB,,0.9399769530735381
12054,[NLB] YWCA SYDNEY LEONG HOLIDAY LODGE,22.237679999999997,113.96468,12054,0,Asia/Hong_Kong,FB,,0.886168804473245
12440,"[KMB] MEI SHING HOUSE SHEK KIP MEI ESTATE|[NWFB] MEI SHING HOUSE SHEK KIP MEI ESTATE, NAM CHEONG STREET",22.33318,114.16676000000001,12440,0,Asia/Hong_Kong,FB,,0.9669879564230296
12741,[XB] SAI LAU KOK ROAD BUS BAY NEAR KWU UK LANE,22.37239,114.11963999999999,12741,0,Asia/Hong_Kong,FB,,0.8760468517343933
3021,"[CTB] PATERSON STREET, GLOUCESTER ROAD|[KMB+CTB] PATERSON STREET/<BR>PATERSON STREET, GLOUCESTER ROAD|[KMB+NWFB] PATERSON STREET/<BR>PATERSON STREET, GLOUCESTER ROAD|[KMB] PATERSON STREET|[NWFB] PATERSON STREET, GLOUCESTER ROAD",22.28246,114.18498000000001,3021,0,Asia/Hong_Kong,FB,,0.8469354538579333
1180,"[CTB] TSUEN FU STREET, TEXACO ROAD|[KMB] TSUEN FU STREET TSUEN WAN|[LWB] TSUEN FU STREET TSUEN WAN",22.36796,114.12218,1180,0,Asia/Hong_Kong,FB,,0.8276063301451089
1181,"[CTB] SHEUNG CHUI COURT, SHA TSUI ROAD|[KMB] SHEUNG CHUI COURT|[LWB] SHEUNG CHUI COURT",22.36761,114.12037,1181,0,Asia/Hong_Kong,FB,,0.9739403314466749
11080,"[CTB] MEI YAT HOUSE YAT TUNG ESTATE, CHUNG YAN ROAD|[CTB] NORTH LANTAU HOSPITAL, CHUNG YAN ROAD|[LWB] MEI YAT HOUSE, YAT TUNG ESTATE|[NLB] NORTH LANTAU HOSPITAL (NORTH BOUND), MEI YAT HOUSE YAT TUNG ESTATE",22.2813,113.93898,11080,0,Asia/Hong_Kong,FB,,0.912551349604522
12911,"[CTB] AUSTIN ROAD, CANTON ROAD|[KMB] AUSTIN ROAD",22.3023,114.16811000000001,12911,0,Asia/Hong_Kong,FB,,0.8587061682568373
10272,"[KMB+CTB] TAI PO GOVERNMENT OFFICE BUILDING/<BR>TAI PO GOVERNMENT OFFICES, TING KOK ROAD|[KMB] TAI PO GOVERNMENT OFFICE BUILDING",22.45073,114.16456000000001,10272,0,Asia/Hong_Kong,FB,,0.7826469861212152
6107,"[KMB+NWFB] ADVENTURE CYCLING AREA/<BR>ADVENTURE CYCLING AREA, SIU LEK YUEN ROAD|[KMB] ADVENTURE CYCLING AREA|[NWFB] ADVENTURE CYCLING AREA, SIU LEK YUEN ROAD",22.38424,114.20863,6107,0,Asia/Hong_Kong,FB,,0.9122903084611884
929,[CTB] AIRPORT (GROUND TRANSPORTATION CENTRE)|[LWB] AIRPORT (GTC) BUS TERMINUS|[LWB] AIRPORT (GTC) BUS TERMINUS,22.31298,113.93796999999999,929,0,Asia/Hong_Kong,FB,,0.9162105337038452
10179,[KMB] SHEUNG TSUEN SAN TSUEN|[LWB] SHEUNG TSUEN SAN TSUEN,22.430410000000002,114.10002,10179,0,Asia/Hong_Kong,FB,,0.9546991247503694
12957,[LRTFeeder] CASTLE PEAK BAY,22.379579999999997,113.98055,12957,0,Asia/Hong_Kong,FB,,0.8945631154420159
140,"[CTB] TIN CHONG STREET, KING'S ROAD|[KMB+CTB] TIN CHONG STREET/<BR>TIN CHONG STREET, KING'S ROAD|[KMB+NWFB] TIN CHONG STREET/<BR>TIN CHONG STREET, KING'S ROAD|[KMB] TIN CHONG STREET|[NWFB] TIN CHONG STREET, KING'S ROAD",22.29007,114.19507,140,0,Asia/Hong_Kong,FB,,0.9609941873548831
6119,"[KMB+CTB] CHEVALIER GARDEN/<BR>CHEVALIER GARDEN, A KUNG KOK STREET|[KMB+NWFB] CHEVALIER GARDEN/<BR>CHEVALIER GARDEN, A KUNG KOK STREET|[KMB] CHEVALIER GARDEN|[LWB] CHEVALIER GARDEN|[NWFB] CHEVALIER GARDEN, A KUNG KOK STREET",22.40612,114.22187,6119,0,Asia/Hong_Kong,FB,,0.7863324442051305
3094,"[CTB] 11 CHUNG HOM KOK ROAD, CHUNG HOM KOK ROAD|[NWFB] 11 CHUNG HOM KOK ROAD, CHUNG HOM KOK ROAD",22.22374,114.2037,3094,0,Asia/Hong_Kong,FB,,0.8941487534671523
9129,[KMB] NGA TSIN WAI ROAD,22.32852,114.18693,9129,0,Asia/Hong_Kong,FB,,0.920036821833863
12065,[NLB] MUI WO POLICE STATION,22.26408,113.99928999999999,12065,0,Asia/Hong_Kong,FB,,0.7818593266014017
9452,[KMB] CHEUNG CHING BUS TERMINUS,22.348370000000003,114.10705,9452,0,Asia/Hong_Kong,FB,,0.9534437736006374
995,"[CTB] CHI LIN NUNNERY, FUNG TAK ROAD|[KMB+NWFB] CHI LIN NUNNERY/<BR>CHI LIN NUNNERY, FUNG TAK ROAD|[KMB] CHI LIN NUNNERY",22.34003,114.20443999999999,995,0,Asia/Hong_Kong,FB,,0.9468761341888473
6094,[KMB] HONG KONG SCHOOL OF MOTORING,22.38092,114.20799,6094,0,Asia/Hong_Kong,FB,,0.9038927756957585
9488,[KMB] KWAI CHUN COURT|[LWB] KWAI CHUN COURT,22.3644,114.13273000000001,9488,0,Asia/Hong_Kong,FB,,0.7507068813191803
3248,"[CTB] GREENWOOD TERRACE, HONG MAN STREET|[KMB+CTB] GREENWOOD TERRACE/<BR>GREENWOOD TERRACE, HONG MAN STREET|[NWFB] GREENWOOD TERRACE, HONG MAN STREET",22.26647,114.23513,3248,0,Asia/Hong_Kong,FB,,0.853446737062356
6077,"[CTB] KONG PUI STREET REST GARDEN, SHA TIN WAI ROAD|[KMB] KONG PUI ST. REST GDN.|[NWFB] KONG PUI STREET REST GARDEN, SHA TIN WAI ROAD",22.37898,114.19735,6077,0,Asia/Hong_Kong,FB,,0.9924739945159258
8006,"[CTB] JUBILEE STREET, CONNAUGHT ROAD CENTRAL|[KMB+CTB] JUBILEE STREET/<BR>JUBILEE STREET, CONNAUGHT ROAD CENTRAL|[KMB+NWFB] JUBILEE STREET/<BR>JUBILEE STREET, CONNAUGHT ROAD CENTRAL|[NWFB] JUBILEE STREET, CONNAUGHT ROAD CENTRAL",22.28537,114.15588000000001,8006,0,Asia/Hong_Kong,FB,,0.9144755795954067
4236,"[CTB] CLP POWER, WATERLOO ROAD|[KMB] CLP POWER",22.32005,114.17646,4236,0,Asia/Hong_Kong,FB,,0.9667710329603625
457,[CTB] SOUTH HORIZONS|[KMB+CTB] SOUTH HORIZONS BUS TERMINUS/<BR>SOUTH HORIZONS|[NWFB] SOUTH HORIZONS|[NWFB] SOUTH HORIZONS BUS TERMINUS,22.242910000000002,114.14917,457,0,Asia/Hong_Kong,FB,,0.940866884733096
12524,"[NWFB] HATTON ROAD, KOTEWALL ROAD",22.28105,114.14008999999999,12524,0,Asia/Hong_Kong,FB,,0.9737592726347343
6668,[KMB] HANG TAU,22.5035,114.10699,6668,0,Asia/Hong_Kong,FB,,0.8878739346007559
9019,[KMB] HUNG HOM (HUNG LUEN ROAD) BUS TERMINUS|[NLB] HUNG HOM (HUNG LUEN ROAD) BUS TERMINUS,22.30144,114.18907,9019,0,Asia/Hong_Kong,FB,,0.4637290248003298
6670,[KMB] KWU TUNG,22.50356,114.10211000000001,6670,0,Asia/Hong_Kong,FB,,0.7563106072791269
6740,[KMB] CHUK YUEN,22.475620000000003,114.0571,6740,0,Asia/Hong_Kong,FB,,0.8741846188631126
1562,[NWFB] ON YIP STREET,22.26697,114.24546000000001,1562,0,Asia/Hong_Kong,FB,,0.918819943067357
12565,"[CTB] CHUNG MAN STREET, CHUNG HAU STREET|[KMB+NWFB] CHUNG MAN STREET/<BR>CHUNG MAN STREET, CHUNG HAU STREET|[KMB] CHUNG MAN STREET",22.31459,114.17783,12565,0,Asia/Hong_Kong,FB,,0.9832188922757363
13197,[KMB] LING CHUEN HOUSE,22.37109,114.19861999999999,13197,0,Asia/Hong_Kong,FB,,0.8640073918369082
6111,[KMB] CITY ONE SHATIN|[LWB] CITY ONE SHATIN,22.38953,114.2035,6111,0,Asia/Hong_Kong,FB,,0.8433537242997158
11069,[NLB] MA PO PING ROAD JUNCTION,22.22612,113.92952,11069,0,Asia/Hong_Kong,FB,,0.8990940986336028
9774,"[CTB] TUEN MUN GOVERNMENT SECONDARY SCHOOL, TUEN HING ROAD|[KMB] TUEN MUN GOVERNMENT SECONDARY SCHOOL|[LRTFeeder] TUEN MUN GOVERNMENT SECONDARY SCHOOL|[LWB] TUEN MUN GOVERNMENT SECONDARY SCHOOL",22.3906,113.97878,9774,0,Asia/Hong_Kong,FB,,0.9608722477534233
13299,[LWB] CENTURY LINK|[NLB] CENTURY LINK,22.29455,113.95031999999999,13299,0,Asia/Hong_Kong,FB,,0.9688646279822518
4218,[CTB] LOK FU ESTATE|[KMB+CTB] LOK FU BUS TERMINUS/<BR>LOK FU ESTATE|[KMB] LOK FU BUS TERMINUS,22.33907,114.18766000000001,4218,0,Asia/Hong_Kong,FB,,0.8233604523808449
4200,"[KMB] SAI YEUNG CHOI LANE|[NWFB] SAI YEUNG CHOI LANE, TAI PO ROAD",22.32884,114.16678,4200,0,Asia/Hong_Kong,FB,,0.9250175898410576
12902,[NLB] CHUNG YAT STREET,22.276120000000002,113.93196,12902,0,Asia/Hong_Kong,FB,,0.8305968418761647
6699,[KMB] LO WU STATION ROAD,22.52422,114.12194,6699,0,Asia/Hong_Kong,FB,,0.6863927359568288
12776,[DB] DISCOVERY BAY TUNNEL LINK ROAD OPPOSITE DISCOVERY BAY TUNNEL CONTROL BUILDING|[DB] DISCOVERY BAY TUNNEL LINK ROAD OPPOSITE DISCOVERY BAY TUNNEL CONTROL BUILDING (SET DOWN ONLY),22.30965,113.99043,12776,0,Asia/Hong_Kong,FB,,0.9493527386124074
287,"[CTB] NORTH POINT SERVICE RESERVOIR PLAYGROUND, TIN HAU TEMPLE ROAD|[NWFB] NORTH POINT SERVICE RESERVOIR PLAYGROUND, TIN HAU TEMPLE ROAD",22.28814,114.20008,287,0,Asia/Hong_Kong,FB,,0.869174522329609
395,[CTB] KENNEDY TOWN|[KMB+NWFB] KENNEDY TOWN BUS TERMINUS/<BR>KENNEDY TOWN,22.282020000000003,114.1227,395,0,Asia/Hong_Kong,FB,,0.956409511632627
7101,"[KMB+NWFB] SAU HONG HOUSE/<BR>SAU HONG HOUSE, SAU MAU PING ROAD|[KMB] SAU HONG HOUSE",22.3233,114.23051000000001,7101,0,Asia/Hong_Kong,FB,,0.9795914270324739
514,"[CTB] DAIRY FARM ICE & COLD STORAGE, TIN WAN PRAYA ROAD|[KMB+CTB] DAIRY FARM COLD STORE DEPARTMENT/<BR>DAIRY FARM ICE & COLD STORAGE, TIN WAN PRAYA ROAD|[NWFB] DAIRY FARM ICE & COLD STORAGE, TIN WAN PRAYA ROAD",22.24865,114.14433999999999,514,0,Asia/Hong_Kong,FB,,0.5023714358195076
10279,[KMB] PLOVER COVE GARDEN,22.44896,114.1684,10279,0,Asia/Hong_Kong,FB,,0.880373694995773
916,"[KMB] SIU SAI WAN SPORTS GROUND|[NWFB] SIU SAI WAN SPORTS GROUND, SIU SAI WAN ROAD",22.2664,114.24847,916,0,Asia/Hong_Kong,FB,,0.9420353588268853
9795,[KMB] TAI HING STREET|[LWB] TAI HING STREET,22.40077,113.96862,9795,0,Asia/Hong_Kong,FB,,0.9749455691270912
13406,"[CTB] WAN CHAI FERRY PIER, CONVENTION AVENUE|[KMB+CTB] WAN CHAI FERRY PIER/<BR>WAN CHAI FERRY PIER, CONVENTION AVENUE|[KMB] WAN CHAI FERRY PIER",22.282239999999998,114.17696000000001,13406,0,Asia/Hong_Kong,FB,,0.9193934391372953
277,"[CTB] PATERSON STREET, YEE WO STREET|[KMB+CTB] PATERSON STREET/<BR>PATERSON STREET, YEE WO STREET|[KMB+NWFB] PATERSON STREET/<BR>PATERSON STREET, YEE WO STREET|[KMB] PATERSON STREET|[NWFB] PATERSON STREET, YEE WO STREET",22.28004,114.18535,277,0,Asia/Hong_Kong,FB,,0.9656361722826875
10257,"[CTB] TSUI YUEN HOUSE CHUK YUEN SOUTH ESTATE, NGA CHUK STREET",22.34436,114.19389,10257,0,Asia/Hong_Kong,FB,,0.9772875193807029
13240,"[CTB] KAM TAI HOUSE ON TAI ESTATE, ON SAU ROAD|[KMB] KAM TAI HOUSE",22.32497,114.23053999999999,13240,0,Asia/Hong_Kong,FB,,0.7577983271138785
4104,"[CTB] POPLAR STREET, LAI CHI KOK ROAD|[KMB+CTB] POPLAR STREET SHAM SHUI PO/<BR>POPLAR STREET, LAI CHI KOK ROAD|[KMB] POPLAR STREET SHAM SHUI PO",22.32481,114.16553,4104,0,Asia/Hong_Kong,FB,,0.929603672245848
807,"[KMB+CTB] PAK KUNG STREET HUNG HOM/<BR>PAK KUNG STREET, CHATHAM ROAD NORTH|[KMB+NWFB] PAK KUNG STREET HUNG HOM/<BR>PAK KUNG STREET, CHATHAM ROAD NORTH|[KMB] PAK KUNG STREET HUNG HOM",22.31188,114.18618000000001,807,0,Asia/Hong_Kong,FB,,0.9528283447609129
265,"[CTB] EUSTON COURT, BONHAM ROAD|[KMB+CTB] EUSTON COURT/<BR>EUSTON COURT, BONHAM ROAD|[NWFB] EUSTON COURT, BONHAM ROAD",22.28481,114.14485,265,0,Asia/Hong_Kong,FB,,0.9371922965066916
7130,"[KMB+NWFB] CITYPLAZA/<BR>CITYPLAZA, TAIKOO SHING ROAD|[NWFB] CITYPLAZA, TAIKOO SHING ROAD",22.28613,114.21734,7130,0,Asia/Hong_Kong,FB,,0.8780809511748195
6160,"[KMB+CTB] TSANG PIK SHAN SECONDARY SCHOOL/<BR>TSANG PIK SHAN SECONDARY SCHOOL, HANG HONG STREET|[KMB+NWFB] TSANG PIK SHAN SECONDARY SCHOOL/<BR>TSANG PIK SHAN SECONDARY SCHOOL, HANG HONG STREET|[KMB] TSANG PIK SHAN SECONDARY SCHOOL|[NWFB] TSANG PIK SHAN SECONDARY SCHOOL, HANG HONG STREET",22.421879999999998,114.2288,6160,0,Asia/Hong_Kong,FB,,0.9611525265919525
12948,"[CTB] SAI NING STREET, VICTORIA ROAD|[NWFB] SAI NING STREET, VICTORIA ROAD",22.28174,114.12261000000001,12948,0,Asia/Hong_Kong,FB,,0.9564162634148562
6039,"[CTB] TAI WAI MARKET, MEI TIN ROAD|[KMB+NWFB] TAI WAI MARKET/<BR>TAI WAI MARKET, MEI TIN ROAD|[KMB] TAI WAI MARKET|[LWB] TAI WAI MARKET",22.3738,114.17706000000001,6039,0,Asia/Hong_Kong,FB,,0.9423550292864915
9533,[KMB] WAH YUEN CHUEN,22.35151,114.13287,9533,0,Asia/Hong_Kong,FB,,0.919107151989428
12951,"[CTB] VICTORIA ROAD, MOUNT DAVIS ROAD|[NWFB] VICTORIA ROAD, MOUNT DAVIS ROAD",22.27373,114.11891999999999,12951,0,Asia/Hong_Kong,FB,,0.981925061538768
6753,[KMB] MAI PO LUNG,22.49586,114.06803000000001,6753,0,Asia/Hong_Kong,FB,,0.8983210401552039
12537,"[CTB] REGALIA BAY, WONG MA KOK ROAD|[NWFB] REGALIA BAY, WONG MA KOK ROAD",22.20797,114.21346000000001,12537,0,Asia/Hong_Kong,FB,,0.20423965585804993
12479,"[CTB] BEL-AIR ON THE PEAK, CYBERPORT ROAD|[KMB+CTB] BEL-AIR ON THE PEAK/<BR>BEL-AIR ON THE PEAK, CYBERPORT ROAD|[NWFB] BEL-AIR ON THE PEAK, CYBERPORT ROAD",22.25483,114.13365,12479,0,Asia/Hong_Kong,FB,,0.7638183475800381
10000031,[KMB] BRIDE'S POOL,22.502860000000002,114.23697,10000031,0,Asia/Hong_Kong,FB,,0.0004190554499635695
8195,[KMB] ST. ANTONIUS GIRLS' COLLEGE,22.3012,114.23803000000001,8195,0,Asia/Hong_Kong,FB,,0.9651658407286444
8288,"[KMB] PAK WAI|[NWFB] PAK WAI, HIRAM'S HIGHWAY",22.36052,114.25407,8288,0,Asia/Hong_Kong,FB,,0.7449679325576244
440,"[CTB] HEADLAND ROAD, REPULSE BAY ROAD|[NWFB] HEADLAND ROAD, REPULSE BAY ROAD",22.22665,114.20298000000001,440,0,Asia/Hong_Kong,FB,,0.8765564562020833
11020,[NLB] KWUN YAM MONASTERY,22.24232,113.8831,11020,0,Asia/Hong_Kong,FB,,0.7211598118190519
6451,[KMB] PARC VERSAILLES,22.45402,114.15596000000001,6451,0,Asia/Hong_Kong,FB,,0.9521965231232085
10182,[KMB] LAI UK TSUEN|[LWB] LAI UK TSUEN,22.42971,114.0917,10182,0,Asia/Hong_Kong,FB,,0.9767781974455646
12641,[LRTFeeder] NESTLE (HK) LTD,22.46324,114.02792,12641,0,Asia/Hong_Kong,FB,,0.6632711941364461
8222,"[KMB] MILLENNIUM CITY|[NWFB] MILLENNIUM CITY, KWUN TONG ROAD",22.31408,114.2215,8222,0,Asia/Hong_Kong,FB,,0.9437609416996895
9073,"[CTB] FIFE STREET, RECLAMATION STREET|[KMB] RECLAMATION STREET|[NWFB] FIFE STREET, RECLAMATION STREET",22.31943,114.16753,9073,0,Asia/Hong_Kong,FB,,0.9179769058183729
12375,[KMB+CTB] YU CHUI COURT BUS TERMINUS/<BR>YU CHUI COURT|[KMB] YU CHUI COURT BUS TERMINUS|[LWB] YU CHUI COURT BUS TERMINUS,22.38206,114.20522,12375,0,Asia/Hong_Kong,FB,,0.9592512303678697
187,"[CTB] HONG KONG MUSEUM OF COASTAL DEFENCE, TUNG HEI ROAD|[NWFB] HONG KONG MUSEUM OF COASTAL DEFENCE, TUNG HEI ROAD",22.28278,114.23355,187,0,Asia/Hong_Kong,FB,,0.5754324306438331
947,"[CTB] AIR FREIGHT FORWARDING CENTRE, CHUN WAN ROAD|[LWB] AIRPORT FREIGHT FORWARDING CTR.|[NLB] AIRPORT FREIGHT FORWARDING CENTRE",22.295289999999998,113.9251,947,0,Asia/Hong_Kong,FB,,0.7331380861923652
9058,"[CTB] YAN FUNG STREET, FAT KWONG STREET|[KMB+NWFB] YAN FUNG STREET/<BR>YAN FUNG STREET, FAT KWONG STREET",22.3111,114.18345,9058,0,Asia/Hong_Kong,FB,,0.846563090589134
12405,"[CTB] NAM CHEONG ESTATE, SHAM MONG ROAD|[KMB] NAM CHEONG PARK|[NWFB] NAM CHEONG ESTATE, SHAM MONG ROAD",22.3252,114.15688,12405,0,Asia/Hong_Kong,FB,,0.6986706525557359
18,"[CTB] OLD WAN CHAI POLICE STATION, GLOUCESTER ROAD|[KMB+CTB] OLD WAN CHAI POLICE STATION/<BR>OLD WAN CHAI POLICE STATION, GLOUCESTER ROAD|[KMB+NWFB] OLD WAN CHAI POLICE STATION/<BR>OLD WAN CHAI POLICE STATION, GLOUCESTER ROAD|[KMB] OLD WAN CHAI POLICE STATION|[NWFB] OLD WAN CHAI POLICE STATION, GLOUCESTER ROAD",22.27937,114.17493,18,0,Asia/Hong_Kong,FB,,0.7952768614020632
6570,[KMB] NAM WAH PO,22.47595,114.15385,6570,0,Asia/Hong_Kong,FB,,0.942408977163426
7103,[CTB] FESTIVAL WALK|[KMB] FESTIVAL WALK|[NWFB] FESTIVAL WALK,22.33695,114.17506999999999,7103,0,Asia/Hong_Kong,FB,,0.8441347968242461
12053,[NLB] CHEUNG SHA SHEUNG TSUEN|[NLB] UPPER CHEUNG SHA VILLAGE,22.23532,113.9616,12053,0,Asia/Hong_Kong,FB,,0.9901372499661824
6645,[KMB] FUNG KAI NO.1 SECONDARY SCHOOL,22.511470000000003,114.12621999999999,6645,0,Asia/Hong_Kong,FB,,0.8017733021953479
13028,[LRTFeeder] MTR TUEN MUN STATION,22.3941,113.97367,13028,0,Asia/Hong_Kong,FB,,0.9648830584021127
12556,"[CTB] MING KEI COLLEGE, CHERRY STREET|[KMB] MING KEI COLLEGE|[NWFB] MING KEI COLLEGE, CHERRY STREET",22.31879,114.1645,12556,0,Asia/Hong_Kong,FB,,0.9681182342078904
9620,[KMB] TAI KIU TSUEN,22.39181,114.10445,9620,0,Asia/Hong_Kong,FB,,0.959280934408307
13061,"[KMB] TUNG HOI HOUSE TAI HANG TUNG ESTATE|[NWFB] TUNG HOI HOUSE TAI HANG TUNG ESTATE, TAI HANG TUNG ROAD",22.33275,114.17121999999999,13061,0,Asia/Hong_Kong,FB,,0.8698262181058395
1379,[CTB] WHAMPOA GARDEN|[KMB+NWFB] WHAMPOA GARDEN BUS TERMINUS/<BR>WHAMPOA GARDEN|[KMB] WHAMPOA GARDEN BUS TERMINUS,22.30485,114.19063999999999,1379,0,Asia/Hong_Kong,FB,,0.8479532595571392
12958,[KMB] HUNG SHUI KIU TIN SAM ROAD,22.4346,113.99478,12958,0,Asia/Hong_Kong,FB,,0.9785531090405727
6088,"[KMB] SHATIN INDUSTRIAL CENTRE|[NWFB] SHATIN INDUSTRIAL CENTRE, CHAP WAI KON STREET",22.38413,114.20513000000001,6088,0,Asia/Hong_Kong,FB,,0.9709411684654223
12908,"[CTB] MAYWOOD COURT KINGSWOOD VILLAS, TIN KWAI ROAD|[KMB] MAYWOOD COURT|[LWB] TIN LUNG ROAD",22.459629999999997,114.00545,12908,0,Asia/Hong_Kong,FB,,0.8793502560365937
8131,[KMB] HA YEUNG SAN TSUEN,22.29907,114.28858999999999,8131,0,Asia/Hong_Kong,FB,,0.8456890371121071
677,"[CTB] VILLA CECIL, VICTORIA ROAD|[NWFB] VILLA CECIL, VICTORIA ROAD",22.27296,114.12013999999999,677,0,Asia/Hong_Kong,FB,,0.9302827944105583
1016,"[CTB] LEE HONG HOUSE SHUN LEE ESTATE, SHUN CHING STREET|[CTB] LEE HONG HOUSE, SHUN CHING STREET|[KMB] LEE HONG HOUSE",22.33049,114.22588999999999,1016,0,Asia/Hong_Kong,FB,,0.8544187690531116
1133,"[KMB+CTB] LEE KING STREET/<BR>LEE KING STREET, LEE NAM ROAD|[NWFB] LEE KING STREET, LEE NAM ROAD",22.23825,114.15248000000001,1133,0,Asia/Hong_Kong,FB,,0.8637828721756782
12699,[LRTFeeder] GOVERNMENT DEPOT,22.366670000000003,113.94391,12699,0,Asia/Hong_Kong,FB,,0.9703276005080157
12863,[LRTFeeder] CLP (PLANT A),22.38205,113.92102,12863,0,Asia/Hong_Kong,FB,,0.0006611287428481052
6450,[KMB+CTB] TAI PO TAU BUS TERMINUS/<BR>TAI PO TAU|[LWB] TAI PO TAU BUS TERMINUS,22.45476,114.16125,6450,0,Asia/Hong_Kong,FB,,0.7250132626673171
MTR-FOT,Fo Tan,22.3953,114.1982,,,,MTR,,0.9709915092127555
12392,"[CTB] YIU HING HOUSE YIU TUNG ESTATE, YIU HING ROAD|[KMB+CTB] YIU HING HOUSE/<BR>YIU HING HOUSE YIU TUNG ESTATE, YIU HING ROAD|[KMB+NWFB] YIU HING HOUSE/<BR>YIU HING HOUSE YIU TUNG ESTATE, YIU HING ROAD|[NWFB] YIU HING HOUSE YIU TUNG ESTATE, YIU HING ROAD",22.276239999999998,114.22441,12392,0,Asia/Hong_Kong,FB,,0.8014191031442467
8180,"[CTB] LUNG PAK HOUSE HONG PAK COURT, PIK WAN ROAD|[KMB] LUNG PAK HOUSE",22.3032,114.23863999999999,8180,0,Asia/Hong_Kong,FB,,0.8644942578254315
10344,[KMB] METRO CITY,22.32434,114.25698,10344,0,Asia/Hong_Kong,FB,,0.9673574052692577
9509,[KMB] KWAI SHING SWIMMING POOL,22.3596,114.12248000000001,9509,0,Asia/Hong_Kong,FB,,0.9741844441896536
9438,[KMB] CHEUNG HANG BUS TERMINUS,22.35543,114.09759,9438,0,Asia/Hong_Kong,FB,,0.8945443107773491
9969,[KMB] SHUI PIN WAI ESTATE|[LRTFeeder] LR SHUI PIN WAI STOP|[LWB] SHUI PIN WAI ESTATE,22.44449,114.01966999999999,9969,0,Asia/Hong_Kong,FB,,0.9056660656526283
12939,"[CTB] CHINA HONG KONG CITY, KOWLOON PARK DRIVE|[KMB] CHINA HONG KONG CITY",22.30007,114.16878,12939,0,Asia/Hong_Kong,FB,,0.8848991904250004
9524,[KMB] KWAI HING ESTATE KWAI HING ROAD,22.36601,114.1318,9524,0,Asia/Hong_Kong,FB,,0.901164004536374
874,"[KMB+CTB] BELAIR GARDEN/<BR>BELAIR GARDEN, TAI CHUNG KIU ROAD|[KMB+NWFB] BELAIR GARDEN/<BR>BELAIR GARDEN, TAI CHUNG KIU ROAD|[KMB] BELAIR GARDEN|[LWB] BELAIR GARDEN|[NWFB] BELAIR GARDEN, TAI CHUNG KIU ROAD",22.38472,114.19816999999999,874,0,Asia/Hong_Kong,FB,,0.9502369102164926
9224,[KMB] HING WAH STREET CHEUNG SHA WAN,22.33781,114.15333999999999,9224,0,Asia/Hong_Kong,FB,,0.9502986086434353
1212,"[CTB] WU TSUI HOUSE WU KING ESTATE, WU KING ROAD|[KMB] WU TSUI HOUSE WU KING ESTATE|[LRTFeeder] WU TSUI HOUSE, WU KING ESTATE|[LWB] WU TSUI HOUSE WU KING ESTATE",22.37665,113.96646000000001,1212,0,Asia/Hong_Kong,FB,,0.9658174291438549
9778,[KMB] WALDORF GARDEN,22.3931,113.97838999999999,9778,0,Asia/Hong_Kong,FB,,0.7988795267873618
12498,"[CTB] HARMONY GARDEN, HARMONY ROAD|[KMB] HARMONY ROAD",22.26513,114.24959,12498,0,Asia/Hong_Kong,FB,,0.7997456066409265
12672,[LRTFeeder] SHUI CHIU SAN TSUEN,22.42255,114.02991000000002,12672,0,Asia/Hong_Kong,FB,,0.8066467377662976
8144,[KMB] CHUN WANG STREET|[NWFB] CHUN WANG STREET,22.28214,114.27238,8144,0,Asia/Hong_Kong,FB,,0.7229280497571889
12880,[KMB] CHING HO ESTATE BUS TERMINUS,22.49465,114.12806,12880,0,Asia/Hong_Kong,FB,,0.9600738105150051
1553,"[CTB] YU HING HOUSE HING WAH ESTATE, CHAI WAN ROAD|[KMB+CTB] YU HING HOUSE HING WAH ESTATE/<BR>YU HING HOUSE HING WAH ESTATE, CHAI WAN ROAD|[NWFB] YU HING HOUSE HING WAH ESTATE, CHAI WAN ROAD",22.26437,114.23441000000001,1553,0,Asia/Hong_Kong,FB,,0.9655244622912706
10161,[KMB] PAT HEUNG POLICE STATION,22.4416,114.08943000000001,10161,0,Asia/Hong_Kong,FB,,0.9443136355076165
1321,"[CTB] CHI WO STREET, JORDAN ROAD|[KMB] CHI WO STREET JORDAN",22.30592,114.17257,1321,0,Asia/Hong_Kong,FB,,0.968989997242162
9720,"[CTB] HONG KONG GARDEN, CASTLE PEAK ROAD|[KMB] HONG KONG GARDEN",22.360789999999998,114.04241,9720,0,Asia/Hong_Kong,FB,,0.9088588287628017
6602,[KMB] NORTH DISTRICT PARK NORTH GATE,22.49961,114.13501000000001,6602,0,Asia/Hong_Kong,FB,,0.6370045598639057
9594,[KMB] LEI MUK SHUE ESTATE,22.37837,114.13711,9594,0,Asia/Hong_Kong,FB,,0.8734204947506906
863,"[KMB+CTB] AUXILIARY MEDICAL SERVICE/<BR>AUXILIARY MEDICAL SERVICES HEADQUARTERS, PRINCESS MARGARET ROAD|[KMB+NWFB] AUXILIARY MEDICAL SERVICE/<BR>AUXILIARY MEDICAL SERVICES HEADQUARTERS, PRINCESS MARGARET ROAD|[KMB] AUXILIARY MEDICAL SERVICE",22.31728,114.17855,863,0,Asia/Hong_Kong,FB,,0.9450804618074193
90,"[CTB] STANLEY BEACH ROAD, STANLEY VILLAGE ROAD|[NWFB] STANLEY BEACH ROAD, STANLEY VILLAGE ROAD",22.22407,114.21343,90,0,Asia/Hong_Kong,FB,,0.9806813065309261
1468,"[NWFB] 30 PEAK ROAD, PEAK ROAD",22.27111,114.16899,1468,0,Asia/Hong_Kong,FB,,0.7968994029184688
12463,"[KMB] PAK SHING KOK|[NWFB] PAK SHING KOK, WAN PO ROAD",22.30159,114.27243,12463,0,Asia/Hong_Kong,FB,,0.6854282660839935
13207,[KMB] HUNG SHUI KIU (HUNG FUK ESTATE) BUS TERMINUS,22.43658,113.9985,13207,0,Asia/Hong_Kong,FB,,0.8393258061172019
9454,"[KMB+NWFB] CHEUNG CHING BUS TERMINUS/<BR>CHEUNG CHING ESTATE, CHING HONG ROAD|[KMB] CHEUNG CHING BUS TERMINUS|[LWB] CHEUNG CHING",22.34817,114.10582,9454,0,Asia/Hong_Kong,FB,,0.86540353439445
3038,"[CTB] SING PING MANSION, SING WOO ROAD",22.2678,114.18688,3038,0,Asia/Hong_Kong,FB,,0.911477136950872
1097,"[KMB+CTB] KAM TAI COURT/<BR>KAM TAI COURT, NING TAI ROAD|[KMB] KAM TAI COURT|[LWB] KAM TAI COURT|[NWFB] KAM TAI COURT, NING TAI ROAD",22.40796,114.2202,1097,0,Asia/Hong_Kong,FB,,0.8613456896992387
9210,[KMB] YU CHAU STREET,22.32871,114.16265,9210,0,Asia/Hong_Kong,FB,,0.9594887359555735
13108,"[CTB] CHEERFUL COURT, CHOI HA ROAD|[KMB] CHEERFUL COURT",22.32553,114.21678,13108,0,Asia/Hong_Kong,FB,,0.9606529670387326
12407,[KMB] HONG KONG INSTITUTE OF BIOTECHNOLOGY|[LWB] HONG KONG INSTITUTE OF BIOTECHNOLOGY,22.42257,114.21399,12407,0,Asia/Hong_Kong,FB,,0.9666997744950271
10000053,[KMB] TAI WO BUS TERMINUS,22.45082,114.16107,10000053,0,Asia/Hong_Kong,FB,,0.9876514877887468
8211,"[CTB] HOW MING STREET, WAI YIP STREET|[KMB] HOW MING STREET, KWUN TONG|[NWFB] HOW MING STREET, WAI YIP STREET",22.31308,114.21813999999999,8211,0,Asia/Hong_Kong,FB,,0.9210532713191142
8193,[KMB] YAU TONG ESTATE,22.29932,114.23866000000001,8193,0,Asia/Hong_Kong,FB,,0.8877377326059517
9161,[KMB] CHAK ON ESTATE,22.34036,114.16498999999999,9161,0,Asia/Hong_Kong,FB,,0.9614021388379348
6708,[KMB] SAN TSUEN,22.54233,114.21651000000001,6708,0,Asia/Hong_Kong,FB,,0.33337724552879744
13131,[KMB] HA WAN TSUEN,22.51333,114.07396000000001,13131,0,Asia/Hong_Kong,FB,,0.10212433226042968
12960,[LRTFeeder] BUTTERFLY BEACH PARK,22.37296,113.95488999999999,12960,0,Asia/Hong_Kong,FB,,0.9585720520258233
9052,"[KMB+CTB] DUNDAS STREET MONG KOK/<BR>DUNDAS STREET, NATHAN ROAD|[KMB+NWFB] DUNDAS STREET MONG KOK/<BR>DUNDAS STREET, NATHAN ROAD|[KMB] DUNDAS STREET MONG KOK|[NWFB] DUNDAS STREET, NATHAN ROAD",22.31486,114.17017,9052,0,Asia/Hong_Kong,FB,,0.9655051579748358
1336,"[CTB] AIR FREIGHT FORWARDING CENTRE, CHUN WAN ROAD|[LWB] CHUN WAN ROAD NORTH|[NLB] AIRPORT FREIGHT FORWARDING CENTRE",22.29491,113.9232,1336,0,Asia/Hong_Kong,FB,,0.7331595883658082
9546,[KMB] LOK KING HOUSE LAI KING ESTATE,22.3455,114.1271,9546,0,Asia/Hong_Kong,FB,,0.9001109451106718
9499,[KMB] KWAI HONG COURT KWAI SHING CIRCUIT,22.36405,114.13031000000001,9499,0,Asia/Hong_Kong,FB,,0.9187880065414653
594,"[CTB] PARK GARDEN, TAI HANG DRIVE",22.27359,114.19293,594,0,Asia/Hong_Kong,FB,,0.8614702769237336
560,"[CTB] YEW CHUNG COLLEGE OF EARLY CHILDHOOD EDUCATION, TIN WAN HILL ROAD|[KMB+CTB] YEW CHUNG COLLEGE OF EARLY CHIRDHOOD EDUCATION/<BR>YEW CHUNG COLLEGE OF EARLY CHILDHOOD EDUCATION, TIN WAN HILL ROAD|[NWFB] YEW CHUNG COLLEGE OF EARLY CHILDHOOD EDUCATION, TIN WAN HILL ROAD",22.25039,114.14761999999999,560,0,Asia/Hong_Kong,FB,,0.9012320921052661
10362,[KMB] HONG YAT COURT,22.31048,114.23526000000001,10362,0,Asia/Hong_Kong,FB,,0.9670958799961072
12916,[KMB] SAU MAU PING (UPPER) BUS TERMINUS,22.315,114.23615,12916,0,Asia/Hong_Kong,FB,,0.9708901700267699
11027,[NLB] LUNG TIN ESTATE,22.25238,113.86504,11027,0,Asia/Hong_Kong,FB,,0.9903927582069357
9154,"[KMB] BLOCK 1, TSUI CHUK GARDEN",22.34581,114.18896000000001,9154,0,Asia/Hong_Kong,FB,,0.8188654058544342
10268,[KMB] SOUTH KWAI CHUNG POLYCLINIC,22.36074,114.12468999999999,10268,0,Asia/Hong_Kong,FB,,0.9816021749492403
6273,"[KMB+CTB] KWONG FUK PLAYGROUND/<BR>KWONG FUK FOOTBALL GROUND, NAM WAN ROAD|[KMB] KWONG FUK PLAYGROUND|[LWB] KWONG FUK PLAYGROUND",22.44775,114.17185,6273,0,Asia/Hong_Kong,FB,,0.9668621169112184
10273,[KMB] TAI PO MEI,22.420460000000002,114.19618,10273,0,Asia/Hong_Kong,FB,,0.9587208810255851
9200,[KMB] TAI HANG TUNG RECREATION GROUND,22.32935,114.17161000000002,9200,0,Asia/Hong_Kong,FB,,0.902258317210731
473,"[CTB] LADDER STREET, CAINE ROAD|[KMB+CTB] LADDER STREET/<BR>LADDER STREET, CAINE ROAD",22.28313,114.14887,473,0,Asia/Hong_Kong,FB,,0.958039299709776
6237,[KMB] CHINESE UNIVERSITY,22.417460000000002,114.20382,6237,0,Asia/Hong_Kong,FB,,0.6882120670144808
1355,"[CTB] WONG TAI SIN STATION, LUNG CHEUNG ROAD|[KMB] WONG TAI SIN STATION",22.341829999999998,114.19131000000002,1355,0,Asia/Hong_Kong,FB,,0.9595041582923642
12063,[NLB] NAM SHAN SAM UK TSUEN,22.25735,113.99048,12063,0,Asia/Hong_Kong,FB,,0.6920359334093968
3187,"[CTB] GREENVALE, MOUNT DAVIS ROAD|[NWFB] GREENVALE, MOUNT DAVIS ROAD",22.27447,114.12745,3187,0,Asia/Hong_Kong,FB,,0.839418486737298
13047,[KMB] KAM SHEUNG ROAD STATION,22.43456,114.06466,13047,0,Asia/Hong_Kong,FB,,0.9626368707920873
12650,[LRTFeeder] CITI MALL,22.44293,114.02774,12650,0,Asia/Hong_Kong,FB,,0.788889909804847
7111,"[CTB] WAH ON HOUSE WAH FU ESTATE, WAH FU ROAD|[KMB+CTB] WAH ON HOUSE/<BR>WAH ON HOUSE WAH FU ESTATE, WAH FU ROAD|[NWFB] WAH ON HOUSE WAH FU ESTATE, WAH FU ROAD",22.251829999999998,114.13869,7111,0,Asia/Hong_Kong,FB,,0.9642511098719816
4148,"[CTB] WING ON PLAZA, SALISBURY ROAD|[KMB] WING ON PLAZA|[NWFB] WING ON PLAZA, SALISBURY ROAD",22.29656,114.17693,4148,0,Asia/Hong_Kong,FB,,0.9600272783960749
9104,[KMB] KWEILIN STREET SHAM SHUI PO,22.32934,114.15969,9104,0,Asia/Hong_Kong,FB,,0.8737390537009846
9689,[KMB] BAYVIEW GARDEN|[LWB] BAYVIEW GARDEN,22.369429999999998,114.0998,9689,0,Asia/Hong_Kong,FB,,0.917585948879032
12363,[KMB] YOHO MALL II|[LRTFeeder] MTR YUEN LONG STATION (NEAR LONG YAT ROAD)(LR YUEN LONG STOP)|[LWB] YOHO MALL II,22.4466,114.0351,12363,0,Asia/Hong_Kong,FB,,0.9243907487365536
6199,[KMB] O TAU,22.40157,114.28215,6199,0,Asia/Hong_Kong,FB,,0.9176616304128182
9470,"[CTB] WANG LUNG STREET, YEUNG UK ROAD|[KMB] WANG LUNG STREET TSUEN WAN",22.36639,114.11863000000001,9470,0,Asia/Hong_Kong,FB,,0.9662994031761932
9815,[KMB] HOH FUK TONG COLLEGE,22.39635,113.97738000000001,9815,0,Asia/Hong_Kong,FB,,0.9762299902231826
9596,[KMB] HO FUNG COLLEGE,22.38043,114.13552,9596,0,Asia/Hong_Kong,FB,,0.936657764570572
531,"[CTB] PAK SHA LAU YUE KWONG CHUEN, ABERDEEN RESERVOIR ROAD|[NWFB] PAK SHA LAU YUE KWONG CHUEN, ABERDEEN RESERVOIR ROAD",22.25149,114.1566,531,0,Asia/Hong_Kong,FB,,0.811743578250998
12989,[KMB] HUNG SHUI KIU (HUNG YUEN ROAD) BUS TERMINUS|[LWB] HUNG SHUI KIU (HUNG YUEN ROAD) BUS TERMINUS,22.43511,113.99793000000001,12989,0,Asia/Hong_Kong,FB,,0.8016919608265445
3172,"[CTB] TONNOCHY ROAD, GLOUCESTER ROAD|[KMB+CTB] TONNOCHY ROAD/<BR>TONNOCHY ROAD, GLOUCESTER ROAD|[KMB] TONNOCHY ROAD|[NWFB] TONNOCHY ROAD, GLOUCESTER ROAD",22.27984,114.17801000000001,3172,0,Asia/Hong_Kong,FB,,0.8996465240251335
10314,"[NWFB] THE PEAK POLICE STATION, PEAK ROAD",22.26555,114.15463000000001,10314,0,Asia/Hong_Kong,FB,,0.8996669525390193
13420,"[CTB] KAI TAK STATION, MUK ON STREET",22.32975,114.20126,13420,0,Asia/Hong_Kong,FB,,0.8273228385925262
6233,[KMB] TAI TAN BARBECUE SITE,22.436970000000002,114.33462,6233,0,Asia/Hong_Kong,FB,,0.6099068478602665
1096,"[KMB+CTB] TAK SUN SECONDARY SCHOOL/<BR>TAK SUN SECONDARY SCHOOL, NING TAI ROAD|[KMB] TAK SUN SECONDARY SCHOOL|[LWB] TAK SUN SECONDARY SCHOOL|[NWFB] TAK SUN SECONDARY SCHOOL, NING TAI ROAD",22.41079,114.22168,1096,0,Asia/Hong_Kong,FB,,0.965314523330122
1404,"[CTB] GRAND VIEW GARDEN, PO KONG VILLAGE ROAD|[KMB+NWFB] GRANDVIEW GARDEN/<BR>FU SHAN ESTATE, PO KONG VILLAGE ROAD|[KMB] GRANDVIEW GARDEN",22.3425,114.2079,1404,0,Asia/Hong_Kong,FB,,0.95392991863577
6105,[KMB+NWFB] WONG NAI TAU BUS TERMINUS/<BR>WONG NAI TAU|[KMB] WONG NAI TAU BUS TERMINUS|[LWB] WONG NAI TAU B/T,22.382379999999998,114.21771000000001,6105,0,Asia/Hong_Kong,FB,,0.7211878687165474
6295,[KMB] TAI PING INDUSTRIAL CENTRE,22.457,114.168,6295,0,Asia/Hong_Kong,FB,,0.8129286150683225
7075,"[CTB] HONG NING ROAD PARK, HONG NING ROAD|[KMB+CTB] HONG NING ROAD PARK/<BR>HONG NING ROAD PARK, HONG NING ROAD|[KMB] HONG NING ROAD PARK",22.321379999999998,114.22448,7075,0,Asia/Hong_Kong,FB,,0.8842628703915826
9225,"[KMB+CTB] CHEUNG SHA WAN STATION/<BR>CHEUNG SHA WAN STATION, CHEUNG SHA WAN ROAD|[KMB+NWFB] CHEUNG SHA WAN STATION/<BR>CHEUNG SHA WAN STATION, CHEUNG SHA WAN ROAD|[NWFB] CHEUNG SHA WAN STATION, CHEUNG SHA WAN ROAD",22.33669,114.15491000000002,9225,0,Asia/Hong_Kong,FB,,0.8959081471972752
9547,[KMB] THE SALVATION ARMY LAI KING HOME,22.34505,114.12763999999999,9547,0,Asia/Hong_Kong,FB,,0.899897909512934
12914,"[CTB] SAU MAU PING SHOPPING CENTRE, SAU MING ROAD|[KMB+NWFB] SAU MAU PING SHOPPING CENTRE/<BR>SAU MAU PING SHOPPING CENTRE, SAU MING ROAD|[KMB] SAU MAU PING SHOPPING CENTRE",22.3191,114.23128999999999,12914,0,Asia/Hong_Kong,FB,,0.9639951100780692
12865,[LRTFeeder] ECOPARK,22.37004,113.93446000000002,12865,0,Asia/Hong_Kong,FB,,0.4322879863689102
12459,"[CTB] WAH HONG STREET, VICTORIA ROAD|[KMB+CTB] WAH HONG STREET/<BR>WAH HONG STREET, VICTORIA ROAD|[NWFB] WAH HONG STREET, VICTORIA ROAD",22.254189999999998,114.13747,12459,0,Asia/Hong_Kong,FB,,0.9398652889616735
12871,[LRTFeeder] TUEN MUN PUBLIC RIDING SCHOOL|[LWB] BUTTERFLY BEACH,22.37564,113.95922,12871,0,Asia/Hong_Kong,FB,,0.8715448754220736
6001,[KMB+CTB] LION ROCK TUNNEL/<BR>LION ROCK TUNNEL TOLL PLAZA|[KMB] LION ROCK TUNNEL,22.35872,114.17501000000001,6001,0,Asia/Hong_Kong,FB,,0.719480500116515
10361,"[CTB] CITYBUS DEPOT, SHING TAI ROAD|[KMB+CTB] CITYBUS DEPOT/<BR>CITYBUS DEPOT, SHING TAI ROAD|[NWFB] CITYBUS DEPOT, SHING TAI ROAD",22.2704,114.24065,10361,0,Asia/Hong_Kong,FB,,0.8913547496695672
8206,[KMB] KING YIP STREET,22.30847,114.2261,8206,0,Asia/Hong_Kong,FB,,0.9362075449348309
MTR-CSW,Cheung Sha Wan,22.3354,114.1516,,,,MTR,,0.8279478385309962
1385,"[CTB] NG WAH CATHOLIC SECONDARY SCHOOL, CHOI HUNG ROAD|[KMB+NWFB] NG WAH CATHOLIC SECONDARY SCHOOL/<BR>NG WAH CATHOLIC SECONDARY SCHOOL, CHOI HUNG ROAD|[KMB] NG WAH CATHOLIC SECONDARY SCHOOL",22.3332,114.1954,1385,0,Asia/Hong_Kong,FB,,0.8594979641019997
1278,"[CTB] PEKING ROAD, CANTON ROAD|[KMB+NWFB] PEKING ROAD/<BR>PEKING ROAD, CANTON ROAD|[KMB] PEKING ROAD|[NWFB] PEKING ROAD, CANTON ROAD",22.2955,114.16944,1278,0,Asia/Hong_Kong,FB,,0.8771784053096633
13120,"[CTB] MACAU FERRY, CONNAUGHT ROAD CENTRAL|[DB] MACAU FERRY|[KMB+CTB] MACAU FERRY/<BR>MACAU FERRY, CONNAUGHT ROAD CENTRAL|[KMB+NWFB] MACAU FERRY/<BR>MACAU FERRY, CONNAUGHT ROAD CENTRAL|[KMB] MACAU FERRY|[XB] CONNAUGHT ROAD CENTRAL EASTBOUND OUTSIDE THE BUS TERMINUS NEAR HK MACAU FERRY PIER, SHEUNG WAN (DEPARTURE DURING THE PERIOD FROM 7.00 P.M. TO 7.00 A.M.)",22.2881,114.14997,13120,0,Asia/Hong_Kong,FB,,0.9367972934500871
12415,"[CTB] HKFYG LEE SHAU KEE COLLEGE|[CTB] HKFYG LEE SHAU KEE COLLEGE, TIN KWAI ROAD|[KMB] HKFYG LEE SHAU KEE COLLEGE|[LRTFeeder] HKFYG LEE SHAU KEE COLLEGE|[LWB] HKFYG LEE SHAU KEE COLLEGE",22.46273,114.00412,12415,0,Asia/Hong_Kong,FB,,0.9016300453903369
9901,[KMB] TIN TSZ BUS TERMINUS|[NLB] TIN SHUI WAI (TIN TSZ ESTATE),22.4535,114.00702,9901,0,Asia/Hong_Kong,FB,,0.8741377679133421
6463,[KMB] GREEN COVE,22.47285,114.2157,6463,0,Asia/Hong_Kong,FB,,0.9118798494167841
7135,[KMB+NWFB] NORTH POINT (PAK FUK ROAD) BUS TERMINUS/<BR>NORTH POINT (PAK FUK ROAD),22.29103,114.20496000000001,7135,0,Asia/Hong_Kong,FB,,0.9318301435063968
695,"[CTB] BISNEY ROAD, VICTORIA ROAD|[NWFB] BISNEY ROAD, VICTORIA ROAD",22.26888,114.12629,695,0,Asia/Hong_Kong,FB,,0.851277449702795
12889,"[KMB+CTB] RICHLAND GARDENS SHOPPING CENTRE/<BR>RICHLAND GARDENS SHOPPING CENTRE, WANG KWONG ROAD|[KMB+NWFB] RICHLAND GARDENS SHOPPING CENTRE/<BR>RICHLAND GARDENS SHOPPING CENTRE, WANG KWONG ROAD|[KMB] RICHLAND GARDENS SHOPPING CENTRE",22.32988,114.20544,12889,0,Asia/Hong_Kong,FB,,0.9576707693833328
6141,[KMB] LEK YUEN BUS TERMINUS,22.38505,114.19215,6141,0,Asia/Hong_Kong,FB,,0.8201301767955482
567,"[CTB] YIU KWAI HOUSE YIU TUNG ESTATE, YIU HING ROAD|[KMB+CTB] YIU KWAI HOUSE/<BR>YIU KWAI HOUSE YIU TUNG ESTATE, YIU HING ROAD|[KMB+NWFB] YIU KWAI HOUSE/<BR>YIU KWAI HOUSE YIU TUNG ESTATE, YIU HING ROAD|[NWFB] YIU KWAI HOUSE YIU TUNG ESTATE, YIU HING ROAD",22.27563,114.22571,567,0,Asia/Hong_Kong,FB,,0.8664154900982509
1068,"[CTB] YAN MING COURT, PO LAM ROAD NORTH|[KMB] YAN MING COURT|[NWFB] YAN MING COURT, PO LAM ROAD NORTH",22.32483,114.25908000000001,1068,0,Asia/Hong_Kong,FB,,0.9568238888589263
12883,[KMB] YUEN LONG STATION BUS TERMINUS|[LRTFeeder] MTR YUEN LONG STATION|[LWB] YUEN LONG STATION|[NLB] YUEN LONG STATION,22.44594,114.03451000000001,12883,0,Asia/Hong_Kong,FB,,0.9021005517321897
645,"[CTB] ISLAND WEST TRANSFER STATION, VICTORIA ROAD|[NWFB] ISLAND WEST TRANSFER STATION, VICTORIA ROAD",22.280279999999998,114.11873999999999,645,0,Asia/Hong_Kong,FB,,0.8661025218502149
10315,"[CTB] HAPPY VALLEY (UPPER), TAI HANG ROAD",22.26323,114.18597,10315,0,Asia/Hong_Kong,FB,,0.967842381751039
441,[CTB] STANLEY GAP ROAD,22.22515,114.20931999999999,441,0,Asia/Hong_Kong,FB,,0.9059664491491465
13263,[DB] AUBERGE DISCOVERY BAY HONG KONG|[DB] AUBERGE DISCOVERY BAY HONG KONG (FOR OVERNIGHT DEPARTURES ONLY),22.307489999999998,114.01678000000001,13263,0,Asia/Hong_Kong,FB,,0.9224660034151829
868,"[CTB] CHE KUNG TEMPLE, CHE KUNG MIU ROAD|[KMB+CTB] CHE KUNG TEMPLE/<BR>CHE KUNG TEMPLE, CHE KUNG MIU ROAD|[KMB] CHE KUNG TEMPLE|[LWB] CHE KUNG TEMPLE",22.37462,114.18387,868,0,Asia/Hong_Kong,FB,,0.9519677347674703
9781,[LRTFeeder] LR TUEN MUN STOP (MTR TUEN MUN STATION),22.39391,113.97381999999999,9781,0,Asia/Hong_Kong,FB,,0.9648774483441953
589,"[CTB] ALEXANDRA HOUSE, DES VOEUX ROAD CENTRAL",22.28154,114.15827,589,0,Asia/Hong_Kong,FB,,0.9641652180159519
646,"[CTB] CARITAS JOCKEY CLUB HOSTEL, VICTORIA ROAD|[NWFB] CARITAS JOCKEY CLUB HOSTEL, VICTORIA ROAD",22.27867,114.11783,646,0,Asia/Hong_Kong,FB,,0.9429281210199911
13314,"[CTB] ON TAT ESTATE, ON SAU ROAD|[KMB] ON TAT ESTATE",22.32036,114.23411999999999,13314,0,Asia/Hong_Kong,FB,,0.900058411988241
13241,"[CTB] ON TAI ESTATE, ON SAU ROAD|[KMB] ON TAI ESTATE",22.32666,114.23078999999998,13241,0,Asia/Hong_Kong,FB,,0.9549547047511519
1173,"[CTB] OSMAN RAMJU SADICK MEMORIAL SPORTS CENTRE, HING FONG ROAD|[KMB] OSMAN RAMJU SADICK MEMORIAL SPORTS CENTRE|[LWB] OSMAN R. SADICK MEMORIAL SPORTS CENTRE",22.361060000000002,114.12953,1173,0,Asia/Hong_Kong,FB,,0.9238255932936824
6604,[KMB] FAN LENG LAU TSUEN|[LWB] FAN LENG LAU TSUEN,22.49687,114.14126,6604,0,Asia/Hong_Kong,FB,,0.9400706575494768
9567,[KMB] CHEUNG WING ROAD,22.370739999999998,114.13438000000001,9567,0,Asia/Hong_Kong,FB,,0.9349500017277456
6225,[KMB] PAK TAM AU,22.42642,114.33135,6225,0,Asia/Hong_Kong,FB,,0.510820429033926
9683,[KMB] BELVEDERE GARDEN PHASE 1|[LWB] BELVEDERE GARDEN PHASE 1,22.37325,114.10303,9683,0,Asia/Hong_Kong,FB,,0.8472771061458484
4192,"[CTB] TSZ ON COURT, WAI WAH STREET|[KMB+NWFB] TSZ ON COURT/<BR>TSZ ON COURT, WAI WAH STREET|[KMB] TSZ ON COURT",22.34863,114.20156999999999,4192,0,Asia/Hong_Kong,FB,,0.8763078208979388
13352,[KMB] WONG SHEK HOUSE,22.331529999999997,114.2092,13352,0,Asia/Hong_Kong,FB,,0.7836636901555827
11006,[NLB] LUNG CHAI,22.241239999999998,113.88144,11006,0,Asia/Hong_Kong,FB,,0.3742842882238548
9943,"[CTB] SHA PO TSUEN, CASTLE PEAK ROAD|[KMB] SHA PO TSUEN",22.45156,114.04978,9943,0,Asia/Hong_Kong,FB,,0.7724536918732863
13149,[KMB] LEUNG KING ESTATE BUS TERMINUS|[LRTFeeder] LEUNG KING ESTATE,22.40693,113.96416,13149,0,Asia/Hong_Kong,FB,,0.9290141644431232
13297,[KMB] YU CHUI COURT,22.38252,114.20546999999999,13297,0,Asia/Hong_Kong,FB,,0.9508310284648555
9537,[KMB] WING YIU HOUSE LAI YIU ESTATE,22.35463,114.13075,9537,0,Asia/Hong_Kong,FB,,0.6080605593547752
10186,[KMB] NGAU KENG|[LWB] NGAU KENG,22.42835,114.08426999999999,10186,0,Asia/Hong_Kong,FB,,0.955417601400715
3242,[CTB] HING WAH ESTATE|[NWFB] HING WAH ESTATE,22.26428,114.23281000000001,3242,0,Asia/Hong_Kong,FB,,0.8296321872943587
6542,[KMB] FONG MA PO (LAM TSUEN WISHING TREE),22.4556,114.1423,6542,0,Asia/Hong_Kong,FB,,0.9843898802979657
9714,[KMB] SEA CREST VILLA PHASE 3,22.364929999999998,114.05465,9714,0,Asia/Hong_Kong,FB,,0.9701954014539329
3246,"[CTB] CHEUK WAH HOUSE HING WAH ESTATE, WAN TSUI ROAD|[KMB+CTB] CHEUK WAH HOUSE HING WAH ESTATE/<BR>CHEUK WAH HOUSE HING WAH ESTATE, WAN TSUI ROAD|[KMB+NWFB] CHEUK WAH HOUSE HING WAH ESTATE/<BR>CHEUK WAH HOUSE HING WAH ESTATE, WAN TSUI ROAD|[NWFB] CHEUK WAH HOUSE HING WAH ESTATE, WAN TSUI ROAD",22.26189,114.2352,3246,0,Asia/Hong_Kong,FB,,0.9635807339780308
13327,[CTB] ISLAND HARBOURVIEW|[KMB] ISLAND HARBOURVIEW BUS TERMINUS,22.31855,114.15875,13327,0,Asia/Hong_Kong,FB,,0.7908976763255279
6535,[KMB] TONG HANG|[LWB] TONG HANG,22.49036,114.14616000000001,6535,0,Asia/Hong_Kong,FB,,0.866316816502493
1086,[KMB+CTB] YUE MAN SQUARE/<BR>YUE MAN SQUARE|[KMB+NWFB] YUE MAN SQUARE/<BR>YUE MAN SQUARE|[KMB] YUE MAN SQUARE,22.31361,114.22458999999999,1086,0,Asia/Hong_Kong,FB,,0.9180858815554502
506,"[CTB] HANG SENG BANK HEAD OFFICE, CONNAUGHT ROAD CENTRAL|[NWFB] HANG SENG BANK HEAD OFFICE, CONNAUGHT ROAD CENTRAL",22.28473,114.15638,506,0,Asia/Hong_Kong,FB,,0.9395908561995344
6514,"[CTB] KWAN TEI, SHA TAU KOK ROAD|[KMB] KWAN TEI",22.50968,114.15881,6514,0,Asia/Hong_Kong,FB,,0.8374644084731053
1031,"[CTB] TAK KING HOUSE TAK TIN ESTATE, PIK WAN ROAD|[KMB] TAK KING HOUSE",22.31092,114.23827,1031,0,Asia/Hong_Kong,FB,,0.9822169926376968
12647,[LRTFeeder] ON HONG ROAD,22.443089999999998,114.02355,12647,0,Asia/Hong_Kong,FB,,0.9376136083384008
1254,"[CTB] CHESTWOOD COURT KINGSWOOD VILLAS, TIN WING ROAD|[KMB] CHESTWOOD COURT|[NLB] CHESTWOOD COURT, KINGSWOOD VILLAS",22.459529999999997,113.99993,1254,0,Asia/Hong_Kong,FB,,0.9263429432578707
6739,[KMB] CHUK YUEN TSUEN,22.47625,114.05649,6739,0,Asia/Hong_Kong,FB,,0.8736475164451768
10157,[KMB] VEGETABLE STATION,22.44134,114.08537,10157,0,Asia/Hong_Kong,FB,,0.9184610314648003
12352,[CTB] KOWLOON PARK DRIVE|[KMB] KOWLOON PARK DRIVE,22.295920000000002,114.17021000000001,12352,0,Asia/Hong_Kong,FB,,0.9457343079605572
6257,[KMB] TAI WO ESTATE|[LWB] TAI WO ESTATE,22.45214,114.16303,6257,0,Asia/Hong_Kong,FB,,0.9628817329723582
13366,"[NWFB] NEW WORLD FIRST BUS WEST KOWLOON DEPOT, HING WAH STREET WEST",22.32961,114.14558000000001,13366,0,Asia/Hong_Kong,FB,,0.9288611766722016
6484,[KMB] BRIDE'S POOL,22.50235,114.23725,6484,0,Asia/Hong_Kong,FB,,0.9144476783445845
10368,"[CTB] PO TAT ESTATE, PO LAM ROAD|[KMB+NWFB] PO TAT ESTATE/<BR>PO TAT ESTATE, PO LAM ROAD|[KMB] PO TAT ESTATE",22.3182,114.23749,10368,0,Asia/Hong_Kong,FB,,0.8014680258454328
4194,[KMB] KWONG CHEUNG STREET,22.33922,114.15052,4194,0,Asia/Hong_Kong,FB,,0.8768431560838414
9036,"[CTB] WING SING LANE, NATHAN ROAD|[KMB] WING SING LANE YAU MA TEI",22.31148,114.17105,9036,0,Asia/Hong_Kong,FB,,0.9694564513867334
9619,[KMB] TSO KUNG TAM OUTDOOR REC. CENTRE,22.38414,114.10856000000001,9619,0,Asia/Hong_Kong,FB,,0.9866263397061856
6654,[KMB] YING PUN,22.47211,114.10923000000001,6654,0,Asia/Hong_Kong,FB,,0.8564547512129683
6658,[KMB] TA SHEK WU TSUEN,22.46402,114.10602,6658,0,Asia/Hong_Kong,FB,,0.7934423067832196
12027,[NLB] CEMETERY AREA NO. 18,22.265629999999998,113.93643,12027,0,Asia/Hong_Kong,FB,,0.9419487852350855
12477,"[CTB] RESIDENCE BEL-AIR, CYBERPORT ROAD|[KMB+CTB] RESIDENCE BEL-AIR/<BR>RESIDENCE BEL-AIR, CYBERPORT ROAD|[NWFB] RESIDENCE BEL-AIR, CYBERPORT ROAD",22.25658,114.13277,12477,0,Asia/Hong_Kong,FB,,0.7546810535844879
12629,[LRTFeeder] YAU SANG GALVANIZERS (HOT-DIP) CO LTD,22.46256,114.02378999999999,12629,0,Asia/Hong_Kong,FB,,0.936874883370359
12751,[KMB+NWFB] HO MAN TIN BUS TERMINUS/<BR>HO MAN TIN ESTATE|[KMB] HO MAN TIN BUS TERMINUS,22.31754,114.18118,12751,0,Asia/Hong_Kong,FB,,0.9591418342586329
4261,[KMB] KA WAI CHUEN,22.30878,114.18704,4261,0,Asia/Hong_Kong,FB,,0.9082185492113364
9237,[KMB] FAT TSEUNG STREET,22.337139999999998,114.15692,9237,0,Asia/Hong_Kong,FB,,0.8944042792005018
6580,"[KMB+CTB] FLORA PLAZA/<BR>FLORA PLAZA, PAK WO ROAD|[KMB] FLORA PLAZA|[LWB] FLORA PLAZA",22.485229999999998,114.14271000000001,6580,0,Asia/Hong_Kong,FB,,0.9549186940778641
1455,"[NWFB] ROSMEAD ROAD, MANSFIELD ROAD",22.26585,114.16273000000001,1455,0,Asia/Hong_Kong,FB,,0.935808471366236
4079,"[CTB] HAU WONG ROAD, PRINCE EDWARD ROAD WEST",22.32761,114.18838999999998,4079,0,Asia/Hong_Kong,FB,,0.9444066059201671
3004,"[NWFB] SAI WAN TREATMENT WORKS, TAI TAM ROAD",22.25773,114.22787,3004,0,Asia/Hong_Kong,FB,,0.9849989695499822
13308,[KMB] HO MAN TIN BUS TERMINUS,22.31781,114.18113000000001,13308,0,Asia/Hong_Kong,FB,,0.9588714858374949
833,[KMB] CEDAR STREET SHAM SHUI PO,22.32423,114.16628999999999,833,0,Asia/Hong_Kong,FB,,0.921134940453079
9105,"[CTB] KWEILIN STREET, LAI CHI KOK ROAD|[KMB] KWEILIN STREET SHAM SHUI PO",22.32861,114.16027,9105,0,Asia/Hong_Kong,FB,,0.9664344123485676
12025,[NLB] PAK KUNG AU,22.248070000000002,113.94325,12025,0,Asia/Hong_Kong,FB,,0.024749811127822804
9889,"[CTB] YAT YEUNG HOUSE TIN YAT ESTATE, TIN SAU ROAD|[KMB] YAT YEUNG HOUSE TIN YAT ESTATE|[LRTFeeder] YAT YEUNG HOUSE, TIN YAT ESTATE|[LWB] YAT YEUNG HOUSE TIN YAT ESTATE",22.46542,114.00035,9889,0,Asia/Hong_Kong,FB,,0.9601708406871717
8281,"[KMB] WO MEI|[NWFB] WO MEI, HIRAM'S HIGHWAY",22.35122,114.25248,8281,0,Asia/Hong_Kong,FB,,0.8804383468282758
6047,[KMB] SUN TIN WAI BUS TERMINUS|[KMB] SUN TIN WAI ESTATE,22.37086,114.18616000000002,6047,0,Asia/Hong_Kong,FB,,0.7439836076885418
259,"[CTB] TWO INTERNATIONAL FINANCE CENTRE, MAN YIU STREET|[NWFB] TWO INTERNATIONAL FINANCE CENTRE, MAN YIU STREET",22.285020000000003,114.15972,259,0,Asia/Hong_Kong,FB,,0.9586196777167054
9531,[KMB] LAI YIU BUS TERMINUS,22.353070000000002,114.13193999999999,9531,0,Asia/Hong_Kong,FB,,0.7700333118420606
1407,"[CTB] OI FU HOUSE TSZ OI COURT, TSZ WAN SHAN ROAD|[KMB] OI FU HOUSE",22.35066,114.19943,1407,0,Asia/Hong_Kong,FB,,0.9864933359019742
139,"[CTB] 7 SEAS SHOPPING CENTRE, KING'S ROAD|[KMB+CTB] 7 SEAS SHOPPING CENTRE/<BR>7 SEAS SHOPPING CENTRE, KING'S ROAD|[KMB+NWFB] 7 SEAS SHOPPING CENTRE/<BR>7 SEAS SHOPPING CENTRE, KING'S ROAD|[KMB] 7 SEAS SHOPPING CENTRE|[NWFB] 7 SEAS SHOPPING CENTRE, KING'S ROAD",22.28758,114.1929,139,0,Asia/Hong_Kong,FB,,0.8766493573299861
10300,"[NWFB] ALPINE COURT, KOTEWALL ROAD",22.28177,114.14211,10300,0,Asia/Hong_Kong,FB,,0.9717627734774553
430,"[CTB] WONG CHUK HANG SAN WAI, WONG CHUK HANG ROAD|[NWFB] WONG CHUK HANG SAN WAI, WONG CHUK HANG ROAD",22.24863,114.17633000000001,430,0,Asia/Hong_Kong,FB,,0.9188252668556153
738,"[CTB] CRAIGENGOWER CRICKET CLUB, LEIGHTON ROAD|[KMB+CTB] CRAIGENGOWER CRICKET CLUB/<BR>CRAIGENGOWER CRICKET CLUB, LEIGHTON ROAD|[KMB] CRAIGENGOWER CRICKET CLUB",22.27698,114.18224,738,0,Asia/Hong_Kong,FB,,0.9685732417373095
8261,[KMB] DENON TERRACE,22.33341,114.2352,8261,0,Asia/Hong_Kong,FB,,0.9523489705162193
1413,"[CTB] FU SHAN ESTATE, PO KONG VILLAGE ROAD|[KMB+NWFB] FU SHAN ESTATE/<BR>FU SHAN ESTATE, PO KONG VILLAGE ROAD|[KMB] FU SHAN ESTATE",22.34228,114.20813000000001,1413,0,Asia/Hong_Kong,FB,,0.9541131826604943
13262,[CTB] YING TUNG ESTATE|[NLB] YING TUNG ESTATE,22.29723,113.95338999999998,13262,0,Asia/Hong_Kong,FB,,0.9674607440890722
474,"[CTB] ABERDEEN STREET, CAINE ROAD|[KMB+CTB] ABERDEEN STREET/<BR>ABERDEEN STREET, CAINE ROAD",22.28239,114.15087,474,0,Asia/Hong_Kong,FB,,0.9236993823637144
12941,[NLB] AIRPORT (PASSENGER TERMINAL BUILDING)|[NLB] CHEONG TAT ROAD,22.3147,113.93633,12941,0,Asia/Hong_Kong,FB,,0.9833887149122221
1149,"[KMB+CTB] KAM PIK HOUSE/<BR>KAM PIK HOUSE CHOI HUNG ESTATE, CHOI HUNG ACCESS ROAD|[KMB+NWFB] KAM PIK HOUSE/<BR>KAM PIK HOUSE CHOI HUNG ESTATE, CHOI HUNG ACCESS ROAD|[KMB] KAM PIK HOUSE",22.335379999999997,114.20492,1149,0,Asia/Hong_Kong,FB,,0.9061156310471675
13404,[KMB] TSEUK KIU STREET,22.332060000000002,114.17528,13404,0,Asia/Hong_Kong,FB,,0.9324314044789511
9615,[KMB] LUK YEUNG SUN CHUEN|[LWB] LUK YEUNG SUN CHUEN,22.37207,114.12158000000001,9615,0,Asia/Hong_Kong,FB,,0.8013232138745296
4255,[CTB] OI MAN ESTATE|[KMB+NWFB] HO MAN TIN (OI MAN ESTATE) BUS TERMINUS/<BR>OI MAN ESTATE|[KMB] HO MAN TIN (OI MAN ESTATE) BUS TERMINUS,22.3124,114.17826000000001,4255,0,Asia/Hong_Kong,FB,,0.9375659745356674
4230,"[CTB] YAU MA TEI FIRE STATION, WATERLOO ROAD|[KMB] YAU MA TEI FIRE STATION",22.31326,114.17171,4230,0,Asia/Hong_Kong,FB,,0.9402449070878304
9119,[KMB+NWFB] EMBANKMENT ROAD/<BR>EMBANKMENT ROAD|[KMB] EMBANKMENT ROAD,22.32563,114.17411000000001,9119,0,Asia/Hong_Kong,FB,,0.8915156958480916
550,[CTB] SHAU KEI WAN|[CTB] SHAU KEI WAN BUS TERMINUS|[KMB+CTB] SHAU KEI WAN BUS TERMINUS/<BR>SHAU KEI WAN|[KMB+NWFB] SHAU KEI WAN BUS TERMINUS/<BR>SHAU KEI WAN|[KMB] SHAU KEI WAN BUS TERMINUS|[NWFB] SHAU KEI WAN,22.27842,114.22833,550,0,Asia/Hong_Kong,FB,,0.8937903065920855
11003,[NLB] LING YAN MONASTERY,22.24419,113.87505,11003,0,Asia/Hong_Kong,FB,,0.4649327040284947
556,"[CTB] HING TUNG ESTATE, YIU HING ROAD|[KMB+CTB] HING TUNG ESTATE/<BR>HING TUNG ESTATE, YIU HING ROAD|[KMB+NWFB] HING TUNG ESTATE/<BR>HING TUNG ESTATE, YIU HING ROAD|[NWFB] HING TUNG ESTATE, YIU HING ROAD",22.28081,114.2196,556,0,Asia/Hong_Kong,FB,,0.9207246330462302
9002,[KMB] BATTERY STREET JORDAN,22.30579,114.1683,9002,0,Asia/Hong_Kong,FB,,0.9508228171233076
6084,[KMB] ST. ROSE OF LIMA'S COLLEGE|[LWB] ST. ROSE OF LIMA'S COLLEGE,22.37985,114.204,6084,0,Asia/Hong_Kong,FB,,0.7939890043293318
MTR-TSW,Tsuen Wan,22.3736,114.1178,,,,MTR,,0.9828114610239675
8094,[KMB] TAK KU LING ROAD,22.33001,114.19148999999999,8094,0,Asia/Hong_Kong,FB,,0.8092976783419805
4256,"[KMB+NWFB] HOLY TRINITY CHURCH SECONDARY SCHOOL/<BR>HOLY TRINITY CHURCH SECONDARY SCHOOL, CHUNG HAU STREET|[KMB] HOLY TRINITY CHURCH SECONDARY SCHOOL",22.310029999999998,114.18021,4256,0,Asia/Hong_Kong,FB,,0.9537637076125401
12380,[KMB] KAM SHEUNG ROAD STATION|[LWB] KAM SHEUNG ROAD STATION|[XB] KAM SHEUNG ROAD STATION PUBLIC TRANSPORT INTERCHANGE,22.43463,114.06492,12380,0,Asia/Hong_Kong,FB,,0.9626291965229407
13425,[KMB+NWFB] YAN CHEUNG ROAD/<BR>YAN CHEUNG ROAD,22.30886,114.16573999999999,13425,0,Asia/Hong_Kong,FB,,0.9398460787948731
13196,"[KMB+CTB] SHING CHUEN HOUSE/<BR>SHING CHUEN HOUSE SHUI CHUEN O ESTATE, POK CHUEN STREET|[KMB] SHING CHUEN HOUSE|[KMB] YUET CHUEN HOUSE|[NWFB] SHING CHUEN HOUSE SHUI CHUEN O ESTATE, POK CHUEN STREET",22.372770000000003,114.19661,13196,0,Asia/Hong_Kong,FB,,0.9700411106763488
9149,[KMB] LUNG CHEUNG GOVT. SEC. SCHOOL,22.34236,114.18983,9149,0,Asia/Hong_Kong,FB,,0.8187451217554947
10348,"[CTB] COASTAL SKYLINE, MAN TUNG ROAD|[LWB] COASTAL SKYLINE|[NLB] COASTAL SKYLINE",22.29089,113.94582,10348,0,Asia/Hong_Kong,FB,,0.836110599193331
10000063,"[CTB] EMSD HEADQUARTERS, SHING KAI ROAD",22.32636,114.20246000000002,10000063,0,Asia/Hong_Kong,FB,,0.9415716740844832
1098,[KMB+CTB] CHEVALIER GARDEN BUS TERMINUS/<BR>CHEVALIER GARDEN|[KMB+NWFB] CHEVALIER GARDEN BUS TERMINUS/<BR>CHEVALIER GARDEN|[KMB] CHEVALIER GARDEN BUS TERMINUS|[LWB] CHEVALIER GARDEN BUS TERMINUS|[NWFB] CHEVALIER GARDEN,22.4054,114.22379,1098,0,Asia/Hong_Kong,FB,,0.7158390056392295
12570,"[CTB] HILLIER STREET, CONNAUGHT ROAD CENTRAL",22.28714,114.15205,12570,0,Asia/Hong_Kong,FB,,0.8897788882710176
10191,[KMB] TUNG PIN ROAD PAT HEUNG|[LWB] TUNG PIN ROAD PAT HEUNG,22.42536,114.07946000000001,10191,0,Asia/Hong_Kong,FB,,0.9691655350469165
10000054,[LWB] KONG PUI STREET REST GARDEN,22.37895,114.19738999999998,10000054,0,Asia/Hong_Kong,FB,,0.9927025524659772
12066,[NLB] SILVER MINE BAY WATER TREATMENT WORKS,22.26314,113.99807,12066,0,Asia/Hong_Kong,FB,,0.43153615888296637
845,"[KMB+CTB] WORLD WIDE GARDENS/<BR>WORLD-WIDE GARDENS, HUNG MUI KUK ROAD|[KMB] WORLD WIDE GARDENS",22.36613,114.18058,845,0,Asia/Hong_Kong,FB,,0.7848369216963782
6665,[KMB] KAM TSIN,22.50244,114.11346,6665,0,Asia/Hong_Kong,FB,,0.863260632143232
12787,[PI] KEI WAI PRIMARY SCHOOL|[PI] PAK LAM ROAD: LAYBY FROM ABOUT 170M NORTH OF THE SOUTHERN JUNCTION WITH PAK LAI ROAD,22.35064,114.05931000000001,12787,0,Asia/Hong_Kong,FB,,0.9620296721498399
9693,[KMB] GOLDEN VILLA|[LWB] GOLDEN VILLA,22.367639999999998,114.091,9693,0,Asia/Hong_Kong,FB,,0.7538386229759917
12394,[KMB] SHEUNG YUET ROAD,22.32167,114.20808000000001,12394,0,Asia/Hong_Kong,FB,,0.9748891048203261
3030,"[CTB] DOUGLAS STREET, DES VOEUX ROAD CENTRAL|[NWFB] DOUGLAS STREET, DES VOEUX ROAD CENTRAL",22.28294,114.15715,3030,0,Asia/Hong_Kong,FB,,0.9621859007913152
1356,"[CTB] SHATIN PASS ROAD, LUNG CHEUNG ROAD|[KMB] SHATIN PASS ROAD",22.34185,114.1952,1356,0,Asia/Hong_Kong,FB,,0.9337852848047923
219,[KMB+CTB] HUNG HOM CROSS HARBOUR TUNNEL TOLL PLAZA/<BR>CROSS HARBOUR TUNNEL TOLL PLAZA|[KMB+NWFB] HUNG HOM CROSS HARBOUR TUNNEL TOLL PLAZA/<BR>CROSS HARBOUR TUNNEL TOLL PLAZA,22.30165,114.1806,219,0,Asia/Hong_Kong,FB,,0.7882180302108995
12373,"[CTB] SHEUNG LOK STREET, FAT KWONG STREET|[KMB] SHEUNG LOK STREET",22.31375,114.18193000000001,12373,0,Asia/Hong_Kong,FB,,0.9326691583777376
1417,"[KMB+NWFB] MING TAK ESTATE/<BR>MING TAK ESTATE, PO NING ROAD|[KMB] MING TAK ESTATE|[NWFB] MING TAK ESTATE, PO NING ROAD",22.3175,114.26881999999999,1417,0,Asia/Hong_Kong,FB,,0.9312724093256387
3196,"[KMB+NWFB] WESTERN POLICE STATION/<BR>WESTERN POLICE STATION, DES VOEUX ROAD WEST",22.287860000000002,114.13999,3196,0,Asia/Hong_Kong,FB,,0.9420731188649935
8209,"[CTB] HOW MING STREET, WAI YIP STREET|[KMB] HOW MING STREET, KWUN TONG|[NWFB] HOW MING STREET, WAI YIP STREET",22.31193,114.21967,8209,0,Asia/Hong_Kong,FB,,0.8054397685470931
4250,"[CTB] PUI CHING MIDDLE SCHOOL, PUI CHING ROAD|[KMB+NWFB] PUI CHING MIDDLE SCHOOL/<BR>KOWLOON PUBLIC LIBRARY, PUI CHING ROAD|[KMB] PUI CHING MIDDLE SCHOOL",22.31813,114.17648999999999,4250,0,Asia/Hong_Kong,FB,,0.9710510286522516
237,"[CTB] MATHESON STREET, LEIGHTON ROAD",22.277079999999998,114.18203999999999,237,0,Asia/Hong_Kong,FB,,0.9685673210410479
