stop_id,stop_name,stop_lat,stop_lon,zone_id,location_type,stop_timezone
2,"[CTB] HIU TSUI STREET, SIU SAI WAN ROAD|[KMB+CTB] HIU TSUI STREET/<BR>HIU TSUI STREET, SIU SAI WAN ROAD|[KMB+NWFB] HIU TSUI STREET/<BR>HIU TSUI STREET, SIU SAI WAN ROAD|[NWFB] HIU TSUI STREET, SIU SAI WAN ROAD",22.26436,114.24822,2,0,Asia/Hong_Kong
3,"[CTB] FU SHING COURT, CHAI WAN ROAD|[KMB+CTB] FU SHING COURT/<BR>FU SHING COURT, CHAI WAN ROAD|[KMB+NWFB] FU SHING COURT/<BR>FU SHING COURT, CHAI WAN ROAD|[KMB] FU SHING COURT|[NWFB] FU SHING COURT, CHAI WAN ROAD",22.26578,114.24542,3,0,Asia/Hong_Kong
4,"[CTB] LOK HIN TERRACE, CHAI WAN ROAD|[KMB+CTB] LOK HIN TERRACE/<BR>LOK HIN TERRACE, CHAI WAN ROAD|[KMB+NWFB] LOK HIN TERRACE/<BR>LOK HIN TERRACE, CHAI WAN ROAD|[NWFB] LOK HIN TERRACE, CHAI WAN ROAD",22.26492,114.24167,4,0,Asia/Hong_Kong
5,"[CTB] WAN TSUI SHOPPING CENTRE, CHAI WAN ROAD|[KMB+CTB] WAN TSUI SHOPPING CENTRE/<BR>WAN TSUI SHOPPING CENTRE, CHAI WAN ROAD|[KMB+NWFB] WAN TSUI SHOPPING CENTRE/<BR>WAN TSUI SHOPPING CENTRE, CHAI WAN ROAD|[NWFB] WAN TSUI SHOPPING CENTRE, CHAI WAN ROAD",22.26312,114.23875,5,0,Asia/Hong_Kong
6,"[CTB] CHAK TSUI HOUSE WAN TSUI ESTATE, WAN TSUI ROAD|[KMB+CTB] CHAK TSUI HOUSE WAN TSUI ESTATE/<BR>CHAK TSUI HOUSE WAN TSUI ESTATE, WAN TSUI ROAD|[KMB+NWFB] CHAK TSUI HOUSE WAN TSUI ESTATE/<BR>CHAK TSUI HOUSE WAN TSUI ESTATE, WAN TSUI ROAD|[NWFB] CHAK TSUI HOUSE WAN TSUI ESTATE, WAN TSUI ROAD",22.26242,114.23655,6,0,Asia/Hong_Kong
7,"[CTB] CHEUK WAH HOUSE HING WAH ESTATE, WAN TSUI ROAD|[KMB+CTB] CHEUK WAH HOUSE HING WAH ESTATE/<BR>CHEUK WAH HOUSE HING WAH ESTATE, WAN TSUI ROAD|[KMB+NWFB] CHEUK WAH HOUSE HING WAH ESTATE/<BR>CHEUK WAH HOUSE HING WAH ESTATE, WAN TSUI ROAD|[NWFB] CHEUK WAH HOUSE HING WAH ESTATE, WAN TSUI ROAD",22.26186,114.23546,7,0,Asia/Hong_Kong
8,"[CTB] FUNG HING HOUSE HING WAH ESTATE, WAN TSUI ROAD|[KMB+CTB] FUNG HING HOUSE HING WAH ESTATE/<BR>FUNG HING HOUSE HING WAH ESTATE, WAN TSUI ROAD|[KMB+NWFB] FUNG HING HOUSE HING WAH ESTATE/<BR>FUNG HING HOUSE HING WAH ESTATE, WAN TSUI ROAD|[NWFB] FUNG HING HOUSE HING WAH ESTATE, WAN TSUI ROAD",22.26246,114.23425,8,0,Asia/Hong_Kong
9,"[CTB] STAR OF THE SEA CATHOLIC CHURCH, CHAI WAN ROAD|[KMB+CTB] STAR OF THE SEA CATHOLIC CHURCH/<BR>STAR OF THE SEA CATHOLIC CHURCH, CHAI WAN ROAD|[KMB+NWFB] STAR OF THE SEA CATHOLIC CHURCH/<BR>STAR OF THE SEA CATHOLIC CHURCH, CHAI WAN ROAD|[NWFB] STAR OF THE SEA CATHOLIC CHURCH, CHAI WAN ROAD",22.26477,114.23393,9,0,Asia/Hong_Kong
10,"[CTB] HING MAN ESTATE, CHAI WAN ROAD|[KMB+CTB] HING MAN ESTATE/<BR>HING MAN ESTATE, CHAI WAN ROAD|[KMB+NWFB] HING MAN ESTATE/<BR>HING MAN ESTATE, CHAI WAN ROAD|[NWFB] HING MAN ESTATE, CHAI WAN ROAD",22.26796,114.23338,10,0,Asia/Hong_Kong
11,"[CTB] SHAN TSUI COURT, CHAI WAN ROAD|[KMB+CTB] SHAN TSUI COURT/<BR>SHAN TSUI COURT, CHAI WAN ROAD|[KMB+NWFB] SHAN TSUI COURT/<BR>SHAN TSUI COURT, CHAI WAN ROAD|[NWFB] SHAN TSUI COURT, CHAI WAN ROAD",22.26949,114.23356,11,0,Asia/Hong_Kong
12,"[CTB] SHAU KEI WAN EAST GOVERNMENT SECONDARY SCHOOL, CHAI WAN ROAD|[KMB+CTB] SHAU KEI WAN EAST GOVERNMENT SECONDARY SCHOOL/<BR>SHAU KEI WAN EAST GOVERNMENT SECONDARY SCHOOL, CHAI WAN ROAD|[KMB+NWFB] SHAU KEI WAN EAST GOVERNMENT SECONDARY SCHOOL/<BR>SHAU KEI WAN EAST GOVERNMENT SECONDARY SCHOOL, CHAI WAN ROAD|[NWFB] SHAU KEI WAN EAST GOVERNMENT SECONDARY SCHOOL, CHAI WAN ROAD",22.27244,114.23264,12,0,Asia/Hong_Kong
13,"[CTB] A KUNG NGAM ROAD, CHAI WAN ROAD|[KMB+CTB] A KUNG NGAM ROAD/<BR>A KUNG NGAM ROAD, CHAI WAN ROAD|[KMB+NWFB] A KUNG NGAM ROAD/<BR>A KUNG NGAM ROAD, CHAI WAN ROAD|[NWFB] A KUNG NGAM ROAD, CHAI WAN ROAD",22.27461,114.23089,13,0,Asia/Hong_Kong
15,"[CTB] ELIZABETH HOUSE, GLOUCESTER ROAD|[KMB+CTB] ELIZABETH HOUSE/<BR>ELIZABETH HOUSE, GLOUCESTER ROAD|[KMB] ELIZABETH HOUSE|[NWFB] ELIZABETH HOUSE, GLOUCESTER ROAD",22.28105,114.18145,15,0,Asia/Hong_Kong
16,"[CTB] MARSH ROAD, GLOUCESTER ROAD|[KMB+CTB] MARSH ROAD/<BR>MARSH ROAD, GLOUCESTER ROAD|[KMB+NWFB] MARSH ROAD/<BR>MARSH ROAD, GLOUCESTER ROAD|[NWFB] MARSH ROAD, GLOUCESTER ROAD",22.28036,114.17964,16,0,Asia/Hong_Kong
17,[KMB] FUNG NAM ROAD,22.50797,114.13011,17,0,Asia/Hong_Kong
18,"[CTB] OLD WAN CHAI POLICE STATION, GLOUCESTER ROAD|[KMB+CTB] OLD WAN CHAI POLICE STATION/<BR>OLD WAN CHAI POLICE STATION, GLOUCESTER ROAD|[KMB+NWFB] OLD WAN CHAI POLICE STATION/<BR>OLD WAN CHAI POLICE STATION, GLOUCESTER ROAD|[KMB] OLD WAN CHAI POLICE STATION|[NWFB] OLD WAN CHAI POLICE STATION, GLOUCESTER ROAD",22.27937,114.17493,18,0,Asia/Hong_Kong
19,"[CTB] FENWICK STREET, GLOUCESTER ROAD|[KMB+CTB] FENWICK STREET/<BR>FENWICK STREET, GLOUCESTER ROAD|[KMB+NWFB] FENWICK STREET/<BR>FENWICK STREET, GLOUCESTER ROAD|[KMB] FENWICK STREET|[NWFB] FENWICK STREET, GLOUCESTER ROAD",22.27915,114.17081,19,0,Asia/Hong_Kong
20,[KMB] CICTA TRAINING CENTRE,22.50944,114.12791,20,0,Asia/Hong_Kong
21,"[CTB] STATUE SQUARE, CONNAUGHT ROAD CENTRAL|[KMB+CTB] STATUE SQUARE/<BR>STATUE SQUARE, CONNAUGHT ROAD CENTRAL|[KMB+NWFB] STATUE SQUARE/<BR>STATUE SQUARE, CONNAUGHT ROAD CENTRAL|[KMB] STATUE SQUARE|[NWFB] STATUE SQUARE, CONNAUGHT ROAD CENTRAL",22.28195,114.16013,21,0,Asia/Hong_Kong
22,"[CTB] THE LANDMARK, DES VOEUX ROAD CENTRAL|[KMB+CTB] THE LANDMARK/<BR>THE LANDMARK, DES VOEUX ROAD CENTRAL|[KMB+NWFB] THE LANDMARK/<BR>THE LANDMARK, DES VOEUX ROAD CENTRAL|[KMB] THE LANDMARK|[NWFB] THE LANDMARK, DES VOEUX ROAD CENTRAL",22.28130,114.15826,22,0,Asia/Hong_Kong
23,"[CTB] POTTINGER STREET, CONNAUGHT ROAD CENTRAL|[DB] CONNAUGHT ROAD CENTRAL OUTSIDE CHINESE GENERAL CHAMBER OF COMMERCE BUILDING|[KMB+CTB] POTTINGER STREET/<BR>POTTINGER STREET, CONNAUGHT ROAD CENTRAL|[KMB+NWFB] POTTINGER STREET/<BR>POTTINGER STREET, CONNAUGHT ROAD CENTRAL|[KMB] POTTINGER STREET|[NWFB] POTTINGER STREET, CONNAUGHT ROAD CENTRAL",22.28366,114.15724,23,0,Asia/Hong_Kong
24,"[CTB] CENTRAL MARKET, DES VOEUX ROAD CENTRAL|[KMB+CTB] CENTRAL MARKET/<BR>CENTRAL MARKET, DES VOEUX ROAD CENTRAL|[KMB+NWFB] CENTRAL MARKET/<BR>CENTRAL MARKET, DES VOEUX ROAD CENTRAL|[KMB+NWFB] QUEEN VICTORIA STREET/<BR>CENTRAL MARKET, DES VOEUX ROAD CENTRAL|[KMB] CENTRAL MARKET|[NWFB] CENTRAL MARKET, DES VOEUX ROAD CENTRAL",22.28428,114.15582,24,0,Asia/Hong_Kong
26,"[CTB] HANG SENG BANK HEAD OFFICE, DES VOEUX ROAD CENTRAL|[KMB+CTB] HANG SENG BANK HEAD OFFICE/<BR>HANG SENG BANK HEAD OFFICE, DES VOEUX ROAD CENTRAL|[KMB+NWFB] HANG SENG BANK HEAD OFFICE/<BR>HANG SENG BANK HEAD OFFICE, DES VOEUX ROAD CENTRAL|[KMB] HANG SENG BANK HEAD OFFICE|[NWFB] HANG SENG BANK HEAD OFFICE, DES VOEUX ROAD CENTRAL",22.28449,114.15588,26,0,Asia/Hong_Kong
27,"[CTB] DOUGLAS STREET, DES VOEUX ROAD CENTRAL|[KMB+CTB] DOUGLAS STREET/<BR>DOUGLAS STREET, DES VOEUX ROAD CENTRAL|[KMB+NWFB] DOUGLAS STREET/<BR>DOUGLAS STREET, DES VOEUX ROAD CENTRAL|[KMB] DOUGLAS STREET|[NWFB] DOUGLAS STREET, DES VOEUX ROAD CENTRAL",22.28325,114.15690,27,0,Asia/Hong_Kong
28,"[CTB] JARDINE HOUSE, CONNAUGHT ROAD CENTRAL|[KMB+NWFB] JARDINE HOUSE/<BR>JARDINE HOUSE, CONNAUGHT ROAD CENTRAL|[KMB] JARDINE HOUSE|[NWFB] JARDINE HOUSE, CONNAUGHT ROAD CENTRAL",22.28268,114.15926,28,0,Asia/Hong_Kong
30,"[CTB] THE HK ACADEMY FOR PERFORMING ARTS, GLOUCESTER ROAD|[KMB+NWFB] H.K. ACADEMY FOR PERFORMING ARTS/<BR>THE HK ACADEMY FOR PERFORMING ARTS, GLOUCESTER ROAD|[KMB] H.K. ACADEMY FOR PERFORMING ARTS|[NWFB] THE HK ACADEMY FOR PERFORMING ARTS, GLOUCESTER ROAD",22.27967,114.16949,30,0,Asia/Hong_Kong
31,"[CTB] IMMIGRATION TOWER, GLOUCESTER ROAD|[KMB+CTB] IMMIGRATION TOWER/<BR>IMMIGRATION TOWER, GLOUCESTER ROAD|[KMB+NWFB] IMMIGRATION TOWER/<BR>IMMIGRATION TOWER, GLOUCESTER ROAD|[KMB] IMMIGRATION TOWER|[NWFB] IMMIGRATION TOWER, GLOUCESTER ROAD",22.27948,114.17307,31,0,Asia/Hong_Kong
32,"[CTB] WAN CHAI FERRY PIER, CONVENTION AVENUE|[KMB+NWFB] WAN CHAI FERRY PIER/<BR>WAN CHAI FERRY PIER, CONVENTION AVENUE|[KMB] WAN CHAI FERRY PIER|[NWFB] WAN CHAI FERRY PIER, CONVENTION AVENUE",22.28186,114.17522,32,0,Asia/Hong_Kong
33,"[CTB] A KUNG NGAM ROAD, CHAI WAN ROAD|[KMB+CTB] A KUNG NGAM ROAD/<BR>A KUNG NGAM ROAD, CHAI WAN ROAD|[KMB+NWFB] A KUNG NGAM ROAD/<BR>A KUNG NGAM ROAD, CHAI WAN ROAD|[KMB] A KUNG NGAM ROAD|[NWFB] A KUNG NGAM ROAD, CHAI WAN ROAD",22.27461,114.23117,33,0,Asia/Hong_Kong
35,"[CTB] TAI TAM ROAD, CHAI WAN ROAD|[KMB+CTB] TAI TAM ROAD/<BR>TAI TAM ROAD, CHAI WAN ROAD|[KMB+NWFB] TAI TAM ROAD/<BR>TAI TAM ROAD, CHAI WAN ROAD|[KMB] TAI TAM ROAD|[NWFB] TAI TAM ROAD, CHAI WAN ROAD",22.27117,114.23337,35,0,Asia/Hong_Kong
36,"[CTB] EASTERN HOSPITAL, CHAI WAN ROAD|[KMB+CTB] EASTERN HOSPITAL/<BR>EASTERN HOSPITAL, CHAI WAN ROAD|[KMB+NWFB] EASTERN HOSPITAL/<BR>EASTERN HOSPITAL, CHAI WAN ROAD|[KMB] EASTERN HOSPITAL|[NWFB] EASTERN HOSPITAL, CHAI WAN ROAD",22.26852,114.23365,36,0,Asia/Hong_Kong
40,"[CTB] YOUTH SQUARE, WAN TSUI ROAD|[KMB+CTB] YOUTH SQUARE/<BR>YOUTH SQUARE, WAN TSUI ROAD|[KMB+NWFB] YOUTH SQUARE/<BR>YOUTH SQUARE, WAN TSUI ROAD|[NWFB] YOUTH SQUARE, WAN TSUI ROAD",22.26276,114.23689,40,0,Asia/Hong_Kong
42,"[CTB] GOLD MINE BUILDING, CHAI WAN ROAD|[NWFB] GOLD MINE BUILDING, CHAI WAN ROAD",22.26430,114.24046,42,0,Asia/Hong_Kong
43,"[CTB] YUE WAN ESTATE, CHAI WAN ROAD|[KMB+CTB] YUE WAN ESTATE/<BR>YUE WAN ESTATE, CHAI WAN ROAD|[KMB+NWFB] YUE WAN ESTATE/<BR>YUE WAN ESTATE, CHAI WAN ROAD|[KMB] YUE WAN ESTATE|[NWFB] YUE WAN ESTATE, CHAI WAN ROAD",22.26512,114.24158,43,0,Asia/Hong_Kong
46,"[CTB] FULLVIEW GARDEN, SIU SAI WAN ROAD|[NWFB] FULLVIEW GARDEN, SIU SAI WAN ROAD",22.26268,114.25131,46,0,Asia/Hong_Kong
48,"[CTB] CHONG GENE HANG COLLEGE, ISLAND EASTERN CORRIDOR|[NWFB] CHONG GENE HANG COLLEGE, ISLAND EASTERN CORRIDOR",22.26803,114.23760,48,0,Asia/Hong_Kong
49,"[CTB] ST. PETER'S CHURCH, FORTRESS HILL ROAD|[NWFB] ST. PETER'S CHURCH, FORTRESS HILL ROAD",22.28834,114.19534,49,0,Asia/Hong_Kong
50,"[CTB] FO KAR COURT, FORTRESS HILL ROAD|[NWFB] FO KAR COURT, FORTRESS HILL ROAD",22.28710,114.19538,50,0,Asia/Hong_Kong
51,"[CTB] CHEUNG CHUK SHAN COLLEGE, CLOUD VIEW ROAD|[NWFB] CHEUNG CHUK SHAN COLLEGE, CLOUD VIEW ROAD",22.28571,114.19564,51,0,Asia/Hong_Kong
53,"[CTB] SEAVIEW GARDEN, CLOUD VIEW ROAD|[KMB] SEAVIEW GARDEN|[NWFB] SEAVIEW GARDEN, CLOUD VIEW ROAD",22.28512,114.19617,53,0,Asia/Hong_Kong
54,"[CTB] HANKING COURT, CLOUD VIEW ROAD|[KMB] HANKING COURT|[NWFB] HANKING COURT, CLOUD VIEW ROAD",22.28706,114.19701,54,0,Asia/Hong_Kong
55,"[CTB] SUMMIT COURT, CLOUD VIEW ROAD|[KMB] SUMMIT COURT|[NWFB] SUMMIT COURT, CLOUD VIEW ROAD",22.28726,114.19886,55,0,Asia/Hong_Kong
56,"[CTB] CHOI SAI WOO PARK, BRAEMAR HILL ROAD|[NWFB] CHOI SAI WOO PARK, BRAEMAR HILL ROAD",22.28669,114.20065,56,0,Asia/Hong_Kong
57,[CTB] BRAEMAR HILL|[KMB] BRAEMAR HILL BUS TERMINUS|[NWFB] BRAEMAR HILL,22.28354,114.19885,57,0,Asia/Hong_Kong
58,"[CTB] ISLAND PLACE, KING'S ROAD|[KMB+CTB] ISLAND PLACE/<BR>ISLAND PLACE, KING'S ROAD|[KMB+NWFB] ISLAND PLACE/<BR>ISLAND PLACE, KING'S ROAD|[KMB] ISLAND PLACE|[NWFB] ISLAND PLACE, KING'S ROAD",22.29147,114.20240,58,0,Asia/Hong_Kong
59,"[CTB] METROPOLE BUILDING, KING'S ROAD|[KMB+CTB] METROPOLE BUILDING/<BR>METROPOLE BUILDING, KING'S ROAD|[KMB+NWFB] METROPOLE BUILDING/<BR>METROPOLE BUILDING, KING'S ROAD|[NWFB] METROPOLE BUILDING, KING'S ROAD",22.29087,114.19943,59,0,Asia/Hong_Kong
60,"[CTB] MARY COURT, KING'S ROAD|[KMB+CTB] MARY COURT/<BR>MARY COURT, KING'S ROAD|[KMB+NWFB] MARY COURT/<BR>MARY COURT, KING'S ROAD|[KMB] MARY COURT|[NWFB] MARY COURT, KING'S ROAD",22.29054,114.19781,60,0,Asia/Hong_Kong
61,"[CTB] NEW TREND PLAZA, KING'S ROAD|[KMB+CTB] NEW TREND PLAZA/<BR>NEW TREND PLAZA, KING'S ROAD|[NWFB] NEW TREND PLAZA, KING'S ROAD",22.28981,114.19507,61,0,Asia/Hong_Kong
62,"[CTB] FORTRESS HILL STATION, KING'S ROAD|[CTB] FORTRESS HILL STATION, KING'S ROAD|[KMB+CTB] FORTRESS HILL STATION/<BR>FORTRESS HILL STATION, KING'S ROAD|[KMB+NWFB] FORTRESS HILL STATION/<BR>FORTRESS HILL STATION, KING'S ROAD|[KMB] FORTRESS HILL STATION|[NWFB] FORTRESS HILL STATION, KING'S ROAD",22.28819,114.19365,62,0,Asia/Hong_Kong
63,"[CTB] TSING FUNG STREET FLYOVER, KING'S ROAD|[CTB] TSING FUNG STREET, KING'S ROAD|[KMB+CTB] TSING FUNG STREET/<BR>TSING FUNG STREET, KING'S ROAD|[KMB+NWFB] TSING FUNG STREET/<BR>TSING FUNG STREET, KING'S ROAD|[KMB] TSING FUNG STREET|[NWFB] TSING FUNG STREET, KING'S ROAD",22.28483,114.19296,63,0,Asia/Hong_Kong
64,"[CTB] HONG KONG CENTRAL LIBRARY, CAUSEWAY ROAD|[KMB+CTB] HONG KONG CENTRAL LIBRARY/<BR>HONG KONG CENTRAL LIBRARY, CAUSEWAY ROAD|[KMB+NWFB] HONG KONG CENTRAL LIBRARY/<BR>HONG KONG CENTRAL LIBRARY, CAUSEWAY ROAD|[KMB] HONG KONG CENTRAL LIBRARY|[NWFB] HONG KONG CENTRAL LIBRARY, CAUSEWAY ROAD",22.28015,114.18901,64,0,Asia/Hong_Kong
66,"[CTB] BROADWOOD ROAD, WONG NAI CHUNG ROAD|[KMB+CTB] BROADWOOD ROAD/<BR>BROADWOOD ROAD, WONG NAI CHUNG ROAD",22.27434,114.18353,66,0,Asia/Hong_Kong
67,[CTB] HAPPY VALLEY (LOWER)|[KMB+CTB] HAPPY VALLEY (LOWER) BUS TERMINUS/<BR>HAPPY VALLEY (LOWER),22.27027,114.18475,67,0,Asia/Hong_Kong
68,"[CTB] HONG KONG SANATORIUM AND HOSPITAL, WONG NAI CHUNG ROAD|[KMB+CTB] HONG KONG SANITORIUM AND HOSPITAL/<BR>HONG KONG SANATORIUM AND HOSPITAL, WONG NAI CHUNG ROAD",22.27007,114.18274,68,0,Asia/Hong_Kong
69,"[CTB] HAPPY VALLEY RACECOURSE, WONG NAI CHUNG ROAD|[KMB+CTB] HAPPY VALLEY RACECOURSE/<BR>HAPPY VALLEY RACECOURSE, WONG NAI CHUNG ROAD",22.27147,114.18056,69,0,Asia/Hong_Kong
74,"[NWFB] SHAN TSUI COURT, TAI TAM ROAD",22.26942,114.23312,74,0,Asia/Hong_Kong
75,"[NWFB] GIRL GUIDES CECILIA MAR VENTURE HOUSE, TAI TAM ROAD",22.26325,114.23025,75,0,Asia/Hong_Kong
79,"[NWFB] THE AMERICAN CLUB, TAI TAM ROAD",22.22765,114.21748,79,0,Asia/Hong_Kong
80,"[NWFB] PACIFIC HORIZON, TAI TAM ROAD",22.22529,114.21544,80,0,Asia/Hong_Kong
82,"[CTB] STANLEY VILLAGE|[CTB] STANLEY VILLAGE, STANLEY VILLAGE ROAD|[NWFB] STANLEY VILLAGE|[NWFB] STANLEY VILLAGE, STANLEY VILLAGE ROAD",22.21915,114.21310,82,0,Asia/Hong_Kong
84,"[CTB] ST. STEPHEN'S COLLEGE, TUNG TAU WAN ROAD|[NWFB] ST. STEPHEN'S COLLEGE, TUNG TAU WAN ROAD",22.21667,114.21707,84,0,Asia/Hong_Kong
87,"[CTB] ST. STEPHEN'S COLLEGE, TUNG TAU WAN ROAD|[NWFB] ST. STEPHEN'S COLLEGE, TUNG TAU WAN ROAD",22.21662,114.21702,87,0,Asia/Hong_Kong
89,"[CTB] STANLEY MOUND ROAD, STANLEY VILLAGE ROAD|[NWFB] STANLEY MOUND ROAD, STANLEY VILLAGE ROAD",22.22190,114.21124,89,0,Asia/Hong_Kong
90,"[CTB] STANLEY BEACH ROAD, STANLEY VILLAGE ROAD|[NWFB] STANLEY BEACH ROAD, STANLEY VILLAGE ROAD",22.22407,114.21343,90,0,Asia/Hong_Kong
91,"[NWFB] FABER VILLA, TAI TAM ROAD",22.22575,114.21585,91,0,Asia/Hong_Kong
93,"[NWFB] TURTLE COVE, TAI TAM ROAD",22.23549,114.22280,93,0,Asia/Hong_Kong
94,"[NWFB] TAI TAM RESERVOIR (SOUTH), TAI TAM ROAD",22.24297,114.22199,94,0,Asia/Hong_Kong
95,[KMB] PING TIN,22.30773,114.23558,95,0,Asia/Hong_Kong
96,"[NWFB] GIRL GUIDES CECILIA MAR VENTURE HOUSE, TAI TAM ROAD",22.26411,114.23068,96,0,Asia/Hong_Kong
97,"[NWFB] SHAN TSUI COURT, TAI TAM ROAD",22.26904,114.23278,97,0,Asia/Hong_Kong
99,"[CTB] HONG MAN INDUSTRIAL CENTRE, HONG MAN STREET|[KMB+CTB] HONG MAN INDUSTRIAL CENTRE/<BR>HONG MAN INDUSTRIAL CENTRE, HONG MAN STREET|[NWFB] HONG MAN INDUSTRIAL CENTRE, HONG MAN STREET",22.26489,114.23454,99,0,Asia/Hong_Kong
100,"[CTB] NAM ON LANE, SHAU KEI WAN ROAD|[KMB+CTB] NAM ON LANE/<BR>NAM ON LANE, SHAU KEI WAN ROAD|[KMB+NWFB] NAM ON LANE/<BR>NAM ON LANE, SHAU KEI WAN ROAD|[NWFB] NAM ON LANE, SHAU KEI WAN ROAD",22.27739,114.22721,100,0,Asia/Hong_Kong
101,"[CTB] SUN SING STREET, SHAU KEI WAN ROAD|[KMB+CTB] SUN SING STREET/<BR>SUN SING STREET, SHAU KEI WAN ROAD|[KMB+NWFB] SUN SING STREET/<BR>SUN SING STREET, SHAU KEI WAN ROAD|[KMB] SUN SING STREET|[NWFB] SUN SING STREET, SHAU KEI WAN ROAD",22.27897,114.22607,101,0,Asia/Hong_Kong
102,"[CTB] HOI AN STREET, SHAU KEI WAN ROAD|[KMB+CTB] HOI AN STREET/<BR>HOI AN STREET, SHAU KEI WAN ROAD|[KMB+NWFB] HOI AN STREET/<BR>HOI AN STREET, SHAU KEI WAN ROAD|[KMB] HOI AN STREET|[NWFB] HOI AN STREET, SHAU KEI WAN ROAD",22.28071,114.22345,102,0,Asia/Hong_Kong
103,"[CTB] TAI CHEONG STREET, SHAU KEI WAN ROAD|[KMB+CTB] TAI CHEONG STREET/<BR>TAI CHEONG STREET, SHAU KEI WAN ROAD|[NWFB] TAI CHEONG STREET, SHAU KEI WAN ROAD",22.28345,114.22072,103,0,Asia/Hong_Kong
104,"[CTB] KORNHILL PLAZA, KORNHILL ROAD|[KMB+CTB] KORNHILL PLAZA/<BR>KORNHILL PLAZA, KORNHILL ROAD|[KMB+NWFB] KORNHILL PLAZA/<BR>KORNHILL PLAZA, KORNHILL ROAD|[KMB] KORNHILL PLAZA|[NWFB] KORNHILL PLAZA, KORNHILL ROAD",22.28448,114.21680,104,0,Asia/Hong_Kong
105,"[CTB] BO FUNG GARDENS, KING'S ROAD|[KMB+CTB] BO FUNG GARDENS/<BR>BO FUNG GARDENS, KING'S ROAD|[KMB+NWFB] BO FUNG GARDENS/<BR>BO FUNG GARDENS, KING'S ROAD|[KMB] BO FUNG GARDENS|[NWFB] BO FUNG GARDENS, KING'S ROAD",22.28458,114.21440,105,0,Asia/Hong_Kong
106,"[CTB] QUARRY BAY STREET, KING'S ROAD|[KMB+CTB] QUARRY BAY STREET/<BR>QUARRY BAY STREET, KING'S ROAD|[KMB+NWFB] QUARRY BAY STREET/<BR>QUARRY BAY STREET, KING'S ROAD|[NWFB] QUARRY BAY STREET, KING'S ROAD",22.28473,114.21199,106,0,Asia/Hong_Kong
107,"[CTB] TAIKOO PLACE, KING'S ROAD|[KMB+CTB] TAIKOO PLACE/<BR>TAIKOO PLACE, KING'S ROAD|[KMB+NWFB] TAIKOO PLACE/<BR>TAIKOO PLACE, KING'S ROAD|[KMB] TAIKOO PLACE|[NWFB] TAIKOO PLACE, KING'S ROAD",22.28707,114.21018,107,0,Asia/Hong_Kong
108,"[CTB] MANSION STREET, KING'S ROAD|[KMB+CTB] MANSION STREET/<BR>MANSION STREET, KING'S ROAD|[KMB+NWFB] MANSION STREET/<BR>MANSION STREET, KING'S ROAD|[KMB] MANSION STREET|[NWFB] MANSION STREET, KING'S ROAD",22.28991,114.20930,108,0,Asia/Hong_Kong
109,"[CTB] MODEL HOUSING ESTATE, KING'S ROAD|[KMB+CTB] MODEL HOUSING ESTATE/<BR>MODEL HOUSING ESTATE, KING'S ROAD|[KMB+NWFB] MODEL HOUSING ESTATE/<BR>MODEL HOUSING ESTATE, KING'S ROAD|[KMB] MODEL HOUSING ESTATE|[NWFB] MODEL HOUSING ESTATE, KING'S ROAD",22.29145,114.20788,109,0,Asia/Hong_Kong
110,"[CTB] HEALTHY VILLAGE, KING'S ROAD|[KMB+CTB] HEALTHY VILLAGE/<BR>HEALTHY VILLAGE, KING'S ROAD|[KMB+NWFB] HEALTHY VILLAGE/<BR>HEALTHY VILLAGE, KING'S ROAD|[KMB] HEALTHY VILLAGE|[NWFB] HEALTHY VILLAGE, KING'S ROAD",22.29189,114.20645,110,0,Asia/Hong_Kong
111,"[CTB] HEALTHY GARDENS, KING'S ROAD|[KMB+CTB] HEALTHY GARDENS/<BR>HEALTHY GARDENS, KING'S ROAD|[KMB+NWFB] HEALTHY GARDENS/<BR>HEALTHY GARDENS, KING'S ROAD|[NWFB] HEALTHY GARDENS, KING'S ROAD",22.29180,114.20389,111,0,Asia/Hong_Kong
112,"[CTB] KAM HONG STREET, KING'S ROAD|[KMB+CTB] KAM HONG STREET/<BR>KAM HONG STREET, KING'S ROAD|[KMB+NWFB] KAM HONG STREET/<BR>KAM HONG STREET, KING'S ROAD|[NWFB] KAM HONG STREET, KING'S ROAD",22.29124,114.20122,112,0,Asia/Hong_Kong
113,"[CTB] HYSAN PLACE, HENNESSY ROAD|[KMB+CTB] HYSAN PLACE/<BR>HYSAN PLACE, HENNESSY ROAD|[KMB+NWFB] HYSAN PLACE/<BR>HYSAN PLACE, HENNESSY ROAD|[NWFB] HYSAN PLACE, HENNESSY ROAD",22.27999,114.18353,113,0,Asia/Hong_Kong
116,"[CTB] CNT TOWER, HENNESSY ROAD|[KMB+CTB] CNT TOWER/<BR>CNT TOWER, HENNESSY ROAD|[KMB+NWFB] CNT TOWER/<BR>CNT TOWER, HENNESSY ROAD|[NWFB] CNT TOWER, HENNESSY ROAD",22.27834,114.17857,116,0,Asia/Hong_Kong
118,"[CTB] HENNESSY ROAD GOVERNMENT PRIMARY SCHOOL, HENNESSY ROAD|[NWFB] HENNESSY ROAD GOVERNMENT PRIMARY SCHOOL, HENNESSY ROAD",22.27779,114.17599,118,0,Asia/Hong_Kong
119,"[CTB] FLEMING ROAD, HENNESSY ROAD|[KMB+CTB] FLEMING ROAD/<BR>FLEMING ROAD, HENNESSY ROAD|[KMB+NWFB] FLEMING ROAD/<BR>FLEMING ROAD, HENNESSY ROAD|[KMB] FLEMING ROAD",22.27759,114.17407,119,0,Asia/Hong_Kong
120,"[CTB] SOUTHORN PLAYGROUND, HENNESSY ROAD|[KMB+CTB] SOUTHORN PLAYGROUND/<BR>SOUTHORN PLAYGROUND, HENNESSY ROAD|[KMB+NWFB] SOUTHORN PLAYGROUND/<BR>SOUTHORN PLAYGROUND, HENNESSY ROAD|[NWFB] SOUTHORN PLAYGROUND, HENNESSY ROAD",22.27740,114.17204,120,0,Asia/Hong_Kong
121,"[CTB] LUARD ROAD, HENNESSY ROAD|[KMB+NWFB] LUARD ROAD/<BR>LUARD ROAD, HENNESSY ROAD|[KMB] LUARD ROAD",22.27746,114.17125,121,0,Asia/Hong_Kong
122,"[CTB] PACIFIC PLACE, QUEENSWAY|[KMB+CTB] PACIFIC PLACE/<BR>PACIFIC PLACE, QUEENSWAY|[KMB+NWFB] PACIFIC PLACE/<BR>PACIFIC PLACE, QUEENSWAY|[KMB] PACIFIC PLACE|[NWFB] PACIFIC PLACE, QUEENSWAY",22.27804,114.16514,122,0,Asia/Hong_Kong
124,"[CTB] WING KUT STREET, DES VOEUX ROAD CENTRAL|[KMB+CTB] SHEUNG WAN BUS TERMINUS/<BR>WING KUT STREET, DES VOEUX ROAD CENTRAL|[KMB+CTB] WING KUT STREET/<BR>WING KUT STREET, DES VOEUX ROAD CENTRAL",22.28558,114.15424,124,0,Asia/Hong_Kong
125,[CTB] CENTRAL (MACAU FERRY)|[KMB+CTB] MACAU FERRY BUS TERMINUS/<BR>CENTRAL (MACAU FERRY)|[KMB+NWFB] MACAU FERRY BUS TERMINUS/<BR>CENTRAL (MACAU FERRY)|[NWFB] CENTRAL (MACAU FERRY),22.28855,114.15003,125,0,Asia/Hong_Kong
127,"[CTB] RUMSEY STREET, DES VOEUX ROAD CENTRAL|[KMB+CTB] RUMSEY STREET/<BR>RUMSEY STREET, DES VOEUX ROAD CENTRAL|[KMB+NWFB] RUMSEY STREET/<BR>RUMSEY STREET, DES VOEUX ROAD CENTRAL|[KMB] RUMSEY STREET|[NWFB] RUMSEY STREET, DES VOEUX ROAD CENTRAL",22.28596,114.15392,127,0,Asia/Hong_Kong
128,"[CTB] STATUE SQUARE, DES VOEUX ROAD CENTRAL|[KMB+CTB] STATUE SQUARE/<BR>STATUE SQUARE, DES VOEUX ROAD CENTRAL|[KMB+NWFB] STATUE SQUARE/<BR>STATUE SQUARE, DES VOEUX ROAD CENTRAL|[KMB] STATUE SQUARE|[NWFB] STATUE SQUARE, DES VOEUX ROAD CENTRAL",22.28072,114.15983,128,0,Asia/Hong_Kong
129,"[CTB] CHATER GARDEN, DES VOEUX ROAD CENTRAL|[KMB+CTB] CHATER GARDEN/<BR>CHATER GARDEN, DES VOEUX ROAD CENTRAL|[KMB+NWFB] CHATER GARDEN/<BR>CHATER GARDEN, DES VOEUX ROAD CENTRAL",22.28013,114.16074,129,0,Asia/Hong_Kong
130,"[CTB] ADMIRALTY STATION, QUEENSWAY|[KMB+CTB] ADMIRALTY STATION/<BR>ADMIRALTY STATION, QUEENSWAY|[KMB] ADMIRALTY STATION|[NWFB] ADMIRALTY STATION, QUEENSWAY",22.27849,114.16462,130,0,Asia/Hong_Kong
131,"[CTB] ARSENAL STREET, HENNESSY ROAD|[KMB+CTB] ARSENAL STREET/<BR>ARSENAL STREET, HENNESSY ROAD|[KMB+NWFB] ARSENAL STREET/<BR>ARSENAL STREET, HENNESSY ROAD|[KMB] ARSENAL STREET",22.27781,114.16956,131,0,Asia/Hong_Kong
132,"[CTB] FLEMING ROAD, HENNESSY ROAD|[KMB+CTB] FLEMING ROAD/<BR>FLEMING ROAD, HENNESSY ROAD|[KMB+NWFB] FLEMING ROAD/<BR>FLEMING ROAD, HENNESSY ROAD|[KMB] FLEMING ROAD",22.27778,114.17380,132,0,Asia/Hong_Kong
133,"[CTB] STEWART ROAD, HENNESSY ROAD|[KMB+CTB] STEWART ROAD/<BR>STEWART ROAD, HENNESSY ROAD|[KMB+NWFB] STEWART ROAD/<BR>STEWART ROAD, HENNESSY ROAD|[KMB] STEWART ROAD|[NWFB] STEWART ROAD, HENNESSY ROAD",22.27803,114.17623,133,0,Asia/Hong_Kong
134,"[KMB+CTB] STEWART ROAD/<BR>STEWART ROAD, HENNESSY ROAD|[KMB+NWFB] STEWART ROAD/<BR>STEWART ROAD, HENNESSY ROAD|[KMB] STEWART ROAD",22.27815,114.17716,134,0,Asia/Hong_Kong
135,"[CTB] MARSH ROAD, HENNESSY ROAD|[NWFB] MARSH ROAD, HENNESSY ROAD",22.27920,114.18051,135,0,Asia/Hong_Kong
136,"[CTB] SOGO DEPARTMENT STORE, HENNESSY ROAD|[KMB+NWFB] SOGO DEPARTMENT STORE/<BR>SOGO DEPARTMENT STORE, HENNESSY ROAD|[KMB] SOGO DEPARTMENT STORE|[NWFB] SOGO DEPARTMENT STORE, HENNESSY ROAD",22.28024,114.18444,136,0,Asia/Hong_Kong
137,"[CTB] VICTORIA PARK, CAUSEWAY ROAD|[KMB+CTB] VICTORIA PARK/<BR>VICTORIA PARK, CAUSEWAY ROAD|[KMB+NWFB] VICTORIA PARK/<BR>VICTORIA PARK, CAUSEWAY ROAD|[KMB] VICTORIA PARK|[NWFB] VICTORIA PARK, CAUSEWAY ROAD",22.28088,114.18963,137,0,Asia/Hong_Kong
139,"[CTB] 7 SEAS SHOPPING CENTRE, KING'S ROAD|[KMB+CTB] 7 SEAS SHOPPING CENTRE/<BR>7 SEAS SHOPPING CENTRE, KING'S ROAD|[KMB+NWFB] 7 SEAS SHOPPING CENTRE/<BR>7 SEAS SHOPPING CENTRE, KING'S ROAD|[KMB] 7 SEAS SHOPPING CENTRE|[NWFB] 7 SEAS SHOPPING CENTRE, KING'S ROAD",22.28758,114.19290,139,0,Asia/Hong_Kong
140,"[CTB] TIN CHONG STREET, KING'S ROAD|[KMB+CTB] TIN CHONG STREET/<BR>TIN CHONG STREET, KING'S ROAD|[KMB+NWFB] TIN CHONG STREET/<BR>TIN CHONG STREET, KING'S ROAD|[KMB] TIN CHONG STREET|[NWFB] TIN CHONG STREET, KING'S ROAD",22.29007,114.19507,140,0,Asia/Hong_Kong
141,"[CTB] TONG SHUI ROAD, KING'S ROAD|[KMB+CTB] TONG SHUI ROAD/<BR>TONG SHUI ROAD, KING'S ROAD|[KMB+NWFB] TONG SHUI ROAD/<BR>TONG SHUI ROAD, KING'S ROAD|[NWFB] TONG SHUI ROAD, KING'S ROAD",22.29078,114.19785,141,0,Asia/Hong_Kong
142,"[CTB] KAM HONG STREET, KING'S ROAD|[NWFB] KAM HONG STREET, KING'S ROAD",22.29146,114.20125,142,0,Asia/Hong_Kong
143,"[CTB] ISLAND PLACE, KING'S ROAD|[KMB+CTB] ISLAND PLACE/<BR>ISLAND PLACE, KING'S ROAD|[KMB+NWFB] ISLAND PLACE/<BR>ISLAND PLACE, KING'S ROAD|[KMB] ISLAND PLACE|[NWFB] ISLAND PLACE, KING'S ROAD",22.29170,114.20244,143,0,Asia/Hong_Kong
144,"[CTB] HEALTHY VILLAGE, KING'S ROAD|[KMB+CTB] HEALTHY VILLAGE/<BR>HEALTHY VILLAGE, KING'S ROAD|[KMB+NWFB] HEALTHY VILLAGE/<BR>HEALTHY VILLAGE, KING'S ROAD|[KMB] HEALTHY VILLAGE|[NWFB] HEALTHY VILLAGE, KING'S ROAD",22.29211,114.20636,144,0,Asia/Hong_Kong
146,"[CTB] NORTH POINT GOVERNMENT PRIMARY SCHOOL, KING'S ROAD|[KMB+CTB] NORTH POINT GOVERNMENT PRIMARY SCHOOL/<BR>NORTH POINT GOVERNMENT PRIMARY SCHOOL, KING'S ROAD|[KMB+NWFB] NORTH POINT GOVERNMENT PRIMARY SCHOOL/<BR>NORTH POINT GOVERNMENT PRIMARY SCHOOL, KING'S ROAD|[KMB] NORTH POINT GOVERNMENT PRIMARY SCHOOL|[NWFB] NORTH POINT GOVERNMENT PRIMARY SCHOOL, KING'S ROAD",22.28902,114.20983,146,0,Asia/Hong_Kong
147,"[CTB] SUNWAY GARDENS, KING'S ROAD|[KMB+CTB] SUNWAY GARDENS/<BR>SUNWAY GARDENS, KING'S ROAD|[KMB+NWFB] SUNWAY GARDENS/<BR>SUNWAY GARDENS, KING'S ROAD|[KMB] SUNWAY GARDENS|[NWFB] SUNWAY GARDENS, KING'S ROAD",22.28562,114.21134,147,0,Asia/Hong_Kong
148,"[CTB] SHIPYARD LANE, KING'S ROAD|[KMB+CTB] SHIPYARD LANE/<BR>SHIPYARD LANE, KING'S ROAD|[KMB+NWFB] SHIPYARD LANE/<BR>SHIPYARD LANE, KING'S ROAD|[KMB] SHIPYARD LANE|[NWFB] SHIPYARD LANE, KING'S ROAD",22.28479,114.21412,148,0,Asia/Hong_Kong
149,"[CTB] KORNHILL PLAZA, KORNHILL ROAD|[KMB+NWFB] KORNHILL PLAZA/<BR>KORNHILL PLAZA, KORNHILL ROAD|[NWFB] KORNHILL PLAZA, KORNHILL ROAD",22.28476,114.21608,149,0,Asia/Hong_Kong
151,"[CTB] TAI ON BUILDING, SHAU KEI WAN ROAD|[KMB+CTB] TAI ON BUILDING/<BR>TAI ON BUILDING, SHAU KEI WAN ROAD|[KMB+CTB] TAI ON BUILDING/<BR>TAI ON BUILDING, SHAU KEI WAN ROAD|[KMB+NWFB] TAI ON BUILDING/<BR>TAI ON BUILDING, SHAU KEI WAN ROAD|[KMB] TAI ON BUILDING|[NWFB] TAI ON BUILDING, SHAU KEI WAN ROAD",22.28260,114.22167,151,0,Asia/Hong_Kong
152,"[CTB] HOI AN STREET, SHAU KEI WAN ROAD|[KMB+CTB] HOI AN STREET/<BR>HOI AN STREET, SHAU KEI WAN ROAD|[KMB+NWFB] HOI AN STREET/<BR>HOI AN STREET, SHAU KEI WAN ROAD|[KMB] HOI AN STREET|[NWFB] HOI AN STREET, SHAU KEI WAN ROAD",22.28081,114.22360,152,0,Asia/Hong_Kong
155,"[CTB] HONG MAN STREET, CHAI WAN ROAD|[KMB+CTB] HONG MAN STREET/<BR>HONG MAN STREET, CHAI WAN ROAD|[KMB+NWFB] HONG MAN STREET/<BR>HONG MAN STREET, CHAI WAN ROAD|[KMB] HONG MAN STREET|[NWFB] HONG MAN STREET, CHAI WAN ROAD",22.26453,114.23459,155,0,Asia/Hong_Kong
156,[CTB] CHAI WAN STATION|[NWFB] CHAI WAN STATION,22.26484,114.23695,156,0,Asia/Hong_Kong
157,"[CTB] KAILEY INDUSTRIAL CENTRE, SHEUNG ON STREET",22.26707,114.24380,157,0,Asia/Hong_Kong
159,[CTB] SIU SAI WAN ESTATE|[KMB+CTB] SIU SAI WAN ESTATE/<BR>SIU SAI WAN ESTATE|[NWFB] SIU SAI WAN ESTATE,22.26324,114.24910,159,0,Asia/Hong_Kong
161,"[CTB] CHAI WAN INDUSTRIAL CITY, WING TAI ROAD|[NWFB] CHAI WAN INDUSTRIAL CITY, WING TAI ROAD",22.26768,114.24232,161,0,Asia/Hong_Kong
163,"[CTB] RUMSEY STREET, CONNAUGHT ROAD CENTRAL|[KMB+CTB] RUMSEY STREET/<BR>RUMSEY STREET, CONNAUGHT ROAD CENTRAL|[KMB+CTB] RUMSEY STREET/<BR>RUMSEY STREET, DES VOEUX ROAD CENTRAL|[KMB+NWFB] RUMSEY STREET/ RUMSEY STREET, DES VOEUX ROAD CENTRAL|[KMB+NWFB] RUMSEY STREET/<BR>RUMSEY STREET, CONNAUGHT ROAD CENTRAL|[KMB] RUMSEY STREET",22.28641,114.15414,163,0,Asia/Hong_Kong
166,"[CTB] HENG FA PARADISE MALL (EAST), SHING TAI ROAD|[KMB+CTB] PARADISE MALL (EAST)/<BR>PARADISE MALL (WEST), SHING TAI ROAD|[NWFB] HENG FA PARADISE MALL (EAST), SHING TAI ROAD",22.27612,114.24072,166,0,Asia/Hong_Kong
167,"[CTB] PARADISE MALL (WEST), SHING TAI ROAD|[KMB+CTB] PARADISE MALL (WEST)/<BR>PARADISE MALL (WEST), SHING TAI ROAD",22.27763,114.23943,167,0,Asia/Hong_Kong
169,"[CTB] SHAU KEI WAN GOVERNMENT PRIMARY SCHOOL, A KUNG NGAM ROAD",22.28074,114.23138,169,0,Asia/Hong_Kong
170,"[CTB] MING WAH DAI HA BLOCK C, A KUNG NGAM ROAD",22.27885,114.23146,170,0,Asia/Hong_Kong
171,"[CTB] MING WAH DAI HA BLOCK G, A KUNG NGAM ROAD",22.27765,114.23151,171,0,Asia/Hong_Kong
172,"[CTB] MING WAH DAI HA BLOCK M, A KUNG NGAM ROAD",22.27568,114.23106,172,0,Asia/Hong_Kong
173,"[CTB] SAI WAN HO CIVIC CENTRE, SHAU KEI WAN ROAD|[KMB+CTB] SAI WAN HO CIVIC CENTRE/<BR>SAI WAN HO CIVIC CENTRE, SHAU KEI WAN ROAD|[KMB+NWFB] SAI WAN HO CIVIC CENTRE/<BR>SAI WAN HO CIVIC CENTRE, SHAU KEI WAN ROAD|[KMB] SAI WAN HO CIVIC CENTRE|[NWFB] SAI WAN HO CIVIC CENTRE, SHAU KEI WAN ROAD",22.28173,114.22207,173,0,Asia/Hong_Kong
174,"[CTB] TAI HONG HOUSE, TAI HONG STREET|[KMB+CTB] TAI HONG HOUSE/<BR>TAI HONG HOUSE, TAI HONG STREET|[KMB+NWFB] TAI HONG HOUSE/<BR>TAI HONG HOUSE, TAI HONG STREET|[NWFB] TAI HONG HOUSE, TAI HONG STREET",22.28331,114.22172,174,0,Asia/Hong_Kong
175,"[CTB] LEI KING WAN, LEI KING ROAD|[NWFB] LEI KING WAN, LEI KING ROAD",22.28420,114.22344,175,0,Asia/Hong_Kong
176,"[CTB] MUNSANG COLLEGE (HONG KONG ISLAND), TAI ON STREET|[KMB+CTB] MUN SANG COLLEGE HK ISLAND/<BR>MUNSANG COLLEGE (HONG KONG ISLAND), TAI ON STREET|[KMB+NWFB] MUN SANG COLLEGE HK ISLAND/<BR>MUNSANG COLLEGE (HONG KONG ISLAND), TAI ON STREET|[NWFB] MUNSANG COLLEGE (HONG KONG ISLAND), TAI ON STREET",22.28319,114.22350,176,0,Asia/Hong_Kong
178,"[CTB] SUN BEAM THEATRE, SHU KUK STREET|[NWFB] SUN BEAM THEATRE, SHU KUK STREET",22.29145,114.20020,178,0,Asia/Hong_Kong
179,[CTB] NORTH POINT FERRY PIER|[NWFB] NORTH POINT FERRY PIER,22.29329,114.20167,179,0,Asia/Hong_Kong
180,"[CTB] CITYPLAZA, KING'S ROAD|[KMB+CTB] CITYPLAZA/<BR>CITYPLAZA, KING'S ROAD|[KMB+NWFB] CITYPLAZA/<BR>CITYPLAZA, KING'S ROAD|[KMB] CITYPLAZA|[NWFB] CITYPLAZA, KING'S ROAD",22.28533,114.21753,180,0,Asia/Hong_Kong
181,"[CTB] SAI WAN HO STATION, TAI ON STREET|[NWFB] SAI WAN HO STATION, TAI ON STREET",22.28235,114.22249,181,0,Asia/Hong_Kong
182,"[CTB] MING WAH DAI HA BLOCK K, A KUNG NGAM ROAD",22.27612,114.23106,182,0,Asia/Hong_Kong
183,"[CTB] MING WAH DAI HA BLOCK F, A KUNG NGAM ROAD",22.27815,114.23138,183,0,Asia/Hong_Kong
185,"[CTB] SHAU KEI WAN GOVERNMENT PRIMARY SCHOOL, A KUNG NGAM ROAD",22.28102,114.23138,185,0,Asia/Hong_Kong
187,"[CTB] HONG KONG MUSEUM OF COASTAL DEFENCE, TUNG HEI ROAD|[NWFB] HONG KONG MUSEUM OF COASTAL DEFENCE, TUNG HEI ROAD",22.28278,114.23355,187,0,Asia/Hong_Kong
188,[CTB] HENG FA CHUEN|[KMB+CTB] HENG FA CHUEN BUS TERMINUS/<BR>HENG FA CHUEN|[KMB] HENG FA CHUEN BUS TERMINUS|[NWFB] HENG FA CHUEN,22.27526,114.24123,188,0,Asia/Hong_Kong
190,"[CTB] HKIVE (CHAI WAN), SHUN TAI ROAD|[KMB+CTB] H.K. INSTITUTE OF VOCATIONAL EDUCATION/<BR>HKIVE (CHAI WAN), SHUN TAI ROAD|[KMB] H.K. INSTITUTE OF VOCATIONAL EDUCATION|[NWFB] HKIVE (CHAI WAN), SHUN TAI ROAD",22.27039,114.23986,190,0,Asia/Hong_Kong
193,"[CTB] MAN MING LANE, NATHAN ROAD|[KMB] MAN MING LANE YAU MA TEI|[NWFB] MAN MING LANE, NATHAN ROAD",22.31150,114.17083,193,0,Asia/Hong_Kong
194,"[KMB+NWFB] PITT STREET YAU MA TEI/<BR>PITT STREET, NATHAN ROAD|[KMB] PITT STREET YAU MA TEI",22.31359,114.17043,194,0,Asia/Hong_Kong
197,"[CTB] TONG MI ROAD, LAI CHI KOK ROAD|[KMB+CTB] TONG MI ROAD MONG KOK/<BR>TONG MI ROAD, LAI CHI KOK ROAD|[KMB] TONG MI ROAD MONG KOK",22.32438,114.16574,197,0,Asia/Hong_Kong
199,"[KMB+CTB] KWEILIN STREET SHAM SHUI PO/<BR>KWEILIN STREET, YU CHAU STREET|[KMB] KWEILIN STREET SHAM SHUI PO",22.32987,114.16144,199,0,Asia/Hong_Kong
203,[KMB+CTB] SHAM SHUI PO (YEN CHOW STREET) BUS TERMINUS/<BR>SHAM SHUI PO (YEN CHOW STREET)|[KMB] SHAM SHUI PO (YEN CHOW STREET) BUS TERMINUS|[NWFB] SHAM SHUI PO (YEN CHOW STREET),22.33104,114.15988,203,0,Asia/Hong_Kong
204,[KMB] LAI KOK ESTATE|[NLB] YEE KOK COURT,22.33393,114.15800,204,0,Asia/Hong_Kong
205,"[KMB+CTB] CHEUNG SHA WAN STATION/<BR>CHEUNG SHA WAN STATION, TONKIN STREET|[KMB+NWFB] CHEUNG SHA WAN STATION/<BR>CHEUNG SHA WAN STATION, TONKIN STREET|[KMB] CHEUNG SHA WAN STATION|[NWFB] CHEUNG SHA WAN STATION, TONKIN STREET",22.33531,114.15778,205,0,Asia/Hong_Kong
206,"[KMB+CTB] CAMP STREET/<BR>CAMP STREET, CASTLE PEAK ROAD|[KMB+NWFB] CAMP STREET/<BR>CAMP STREET, CASTLE PEAK ROAD|[KMB] CAMP STREET|[NWFB] CAMP STREET, CASTLE PEAK ROAD",22.33541,114.16035,206,0,Asia/Hong_Kong
207,"[KMB+CTB] CHEUNG SHA WAN GOVERNMENT OFFICE/<BR>CHEUNG SHA WAN GOVERNMENT OFFICES, YEN CHOW STREET|[KMB+NWFB] CHEUNG SHA WAN GOVERNMENT OFFICE/<BR>CHEUNG SHA WAN GOVERNMENT OFFICES, YEN CHOW STREET|[KMB] CHEUNG SHA WAN GOVERNMENT OFFICE",22.33186,114.16125,207,0,Asia/Hong_Kong
208,"[CTB] SHAM SHUI PO STATION, CHEUNG SHA WAN ROAD|[KMB] PEI HO STREET SHAM SHUI PO",22.33041,114.16290,208,0,Asia/Hong_Kong
209,"[CTB] WONG CHUK STREET, CHEUNG SHA WAN ROAD|[KMB] WONG CHUK STREET SHAM SHUI PO",22.32885,114.16488,209,0,Asia/Hong_Kong
210,[KMB] MAPLE STREET SHAM SHUI PO,22.32775,114.16633,210,0,Asia/Hong_Kong
211,"[KMB+CTB] PRINCE EDWARD STATION/<BR>PRINCE EDWARD STATION, NATHAN ROAD|[KMB+NWFB] PRINCE EDWARD STATION/<BR>PRINCE EDWARD STATION, NATHAN ROAD|[KMB] PRINCE EDWARD STATION|[NWFB] PRINCE EDWARD STATION, NATHAN ROAD",22.32545,114.16823,211,0,Asia/Hong_Kong
212,"[KMB+CTB] NULLAH ROAD MONG KOK/<BR>ALLIED PLAZA, NATHAN ROAD|[KMB+NWFB] NULLAH ROAD MONG KOK/<BR>ALLIED PLAZA, NATHAN ROAD|[KMB] NULLAH ROAD MONG KOK|[NWFB] ALLIED PLAZA, NATHAN ROAD",22.32340,114.16863,212,0,Asia/Hong_Kong
214,"[CTB] PITT STREET, NATHAN ROAD|[KMB] PITT STREET YAU MA TEI",22.31363,114.17064,214,0,Asia/Hong_Kong
216,"[KMB+CTB] PUBLIC SQUARE STREET YAU MA TEI/<BR>PUBLIC SQUARE STREET, NATHAN ROAD|[KMB+NWFB] PUBLIC SQUARE STREET YAU MA TEI/<BR>PUBLIC SQUARE STREET, NATHAN ROAD|[KMB] PUBLIC SQUARE STREET YAU MA TEI",22.30989,114.17136,216,0,Asia/Hong_Kong
219,[KMB+CTB] HUNG HOM CROSS HARBOUR TUNNEL TOLL PLAZA/<BR>CROSS HARBOUR TUNNEL TOLL PLAZA|[KMB+NWFB] HUNG HOM CROSS HARBOUR TUNNEL TOLL PLAZA/<BR>CROSS HARBOUR TUNNEL TOLL PLAZA,22.30165,114.18060,219,0,Asia/Hong_Kong
220,"[CTB] CAUSEWAY BAY TYPHOON SHELTER, VICTORIA PARK ROAD|[KMB+CTB] CAUSEWAY BAY TYPHOON SHELTER/<BR>CAUSEWAY BAY TYPHOON SHELTER, VICTORIA PARK ROAD|[KMB+NWFB] CAUSEWAY BAY TYPHOON SHELTER/<BR>CAUSEWAY BAY TYPHOON SHELTER, VICTORIA PARK ROAD|[KMB] VICTORIA PARK ROAD|[NWFB] CAUSEWAY BAY TYPHOON SHELTER, VICTORIA PARK ROAD",22.28368,114.18531,220,0,Asia/Hong_Kong
221,[CTB] GORDON ROAD|[KMB+CTB] GORDON ROAD/<BR>GORDON ROAD|[KMB+NWFB] GORDON ROAD/<BR>GORDON ROAD,22.28578,114.19109,221,0,Asia/Hong_Kong
222,"[CTB] ELECTRIC ROAD MARKET, ELECTRIC ROAD|[KMB+CTB] ELECTRIC ROAD MARKET/<BR>ELECTRIC ROAD MARKET, ELECTRIC ROAD|[KMB+NWFB] ELECTRIC ROAD MARKET/<BR>ELECTRIC ROAD MARKET, ELECTRIC ROAD",22.28943,114.19364,222,0,Asia/Hong_Kong
223,"[CTB] CITY GARDEN, ELECTRIC ROAD|[KMB+CTB] CITY GARDEN/<BR>CITY GARDEN, ELECTRIC ROAD|[KMB+NWFB] CITY GARDEN/<BR>CITY GARDEN, ELECTRIC ROAD",22.29085,114.19493,223,0,Asia/Hong_Kong
228,"[CTB] CHEUNG HONG STREET, KING'S ROAD|[KMB+CTB] CHEUNG HONG STREET/<BR>CHEUNG HONG STREET, KING'S ROAD|[KMB+NWFB] CHEUNG HONG STREET/<BR>CHEUNG HONG STREET, KING'S ROAD|[NWFB] CHEUNG HONG STREET, KING'S ROAD",22.29018,114.19606,228,0,Asia/Hong_Kong
230,"[CTB] THE CHARTERHOUSE, WAN CHAI ROAD|[KMB+NWFB] THE CHARTERHOUSE/<BR>THE CHARTERHOUSE, WAN CHAI ROAD",22.27779,114.17904,230,0,Asia/Hong_Kong
231,"[CTB] BULLOCK LANE, WAN CHAI ROAD|[KMB+NWFB] BULLOCK LANE/<BR>BULLOCK LANE, WAN CHAI ROAD",22.27680,114.17610,231,0,Asia/Hong_Kong
232,[CTB] LUARD ROAD|[KMB+NWFB] LUARD ROAD/<BR>LUARD ROAD|[KMB+NWFB] LUARD ROAD/<BR>LUARD ROAD,22.27843,114.17163,232,0,Asia/Hong_Kong
233,[CTB] ADMIRALTY (RODNEY STREET),22.27878,114.16603,233,0,Asia/Hong_Kong
234,"[CTB] THOMSON ROAD, FLEMING ROAD",22.27741,114.17497,234,0,Asia/Hong_Kong
235,"[CTB] HEARD STREET, WAN CHAI ROAD|[KMB+CTB] HEARD STREET/<BR>HEARD STREET, WAN CHAI ROAD|[KMB+NWFB] HEARD STREET/<BR>HEARD STREET, WAN CHAI ROAD",22.27715,114.17710,235,0,Asia/Hong_Kong
236,"[CTB] TIN LOK LANE, WAN CHAI ROAD",22.27790,114.17913,236,0,Asia/Hong_Kong
237,"[CTB] MATHESON STREET, LEIGHTON ROAD",22.27708,114.18204,237,0,Asia/Hong_Kong
238,"[CTB] BONAVENTURE HOUSE, LEIGHTON ROAD|[KMB] BONAVENTURE HOUSE",22.27757,114.18443,238,0,Asia/Hong_Kong
240,[CTB] CENTRAL FERRY PIERS|[KMB+CTB] CENTRAL (CENTRAL FERRY PIERS)/<BR>CENTRAL FERRY PIERS|[KMB] CENTRAL (CENTRAL FERRY PIERS)|[NWFB] CENTRAL FERRY PIERS,22.28601,114.15998,240,0,Asia/Hong_Kong
241,"[CTB] TWO INTERNATIONAL FINANCE CENTRE, MAN YIU STREET|[NWFB] TWO INTERNATIONAL FINANCE CENTRE, MAN YIU STREET",22.28476,114.15982,241,0,Asia/Hong_Kong
244,"[CTB] HONG KONG PARK, COTTON TREE DRIVE|[KMB+CTB] HONG KONG PARK/<BR>HONG KONG PARK, COTTON TREE DRIVE|[NWFB] HONG KONG PARK, COTTON TREE DRIVE",22.27764,114.16039,244,0,Asia/Hong_Kong
245,"[CTB] KENNEDY HEIGHTS, KENNEDY ROAD|[KMB+CTB] KENNEDY HEIGHTS/<BR>KENNEDY HEIGHTS, KENNEDY ROAD|[NWFB] KENNEDY HEIGHTS, KENNEDY ROAD",22.27647,114.15750,245,0,Asia/Hong_Kong
246,"[CTB] CARITAS CENTRE, CAINE ROAD|[KMB+CTB] CARITAS CENTRE/<BR>CARITAS CENTRE, CAINE ROAD|[NWFB] CARITAS CENTRE, CAINE ROAD",22.27939,114.15420,246,0,Asia/Hong_Kong
247,"[CTB] DR SUN YAT-SEN MUSEUM, CAINE ROAD|[KMB+CTB] DR SUN YAT-SEN MUSEUM/<BR>DR SUN YAT-SEN MUSEUM, CAINE ROAD|[NWFB] DR SUN YAT-SEN MUSEUM, CAINE ROAD",22.28135,114.15188,247,0,Asia/Hong_Kong
248,"[CTB] LADDER STREET, CAINE ROAD|[KMB+CTB] LADDER STREET/<BR>LADDER STREET, CAINE ROAD|[NWFB] LADDER STREET, CAINE ROAD",22.28287,114.14939,248,0,Asia/Hong_Kong
249,"[CTB] SEYMOUR ROAD, CAINE ROAD|[KMB+CTB] SEYMOUR ROAD/<BR>SEYMOUR ROAD, CAINE ROAD|[NWFB] SEYMOUR ROAD, CAINE ROAD",22.28312,114.14793,249,0,Asia/Hong_Kong
250,"[CTB] JADESTONE COURT, SEYMOUR ROAD",22.28285,114.14887,250,0,Asia/Hong_Kong
252,"[CTB] ROBINSON ROAD, SEYMOUR ROAD",22.28088,114.15071,252,0,Asia/Hong_Kong
253,"[CTB] RAIMONDI COLLEGE, ROBINSON ROAD|[NWFB] RAIMONDI COLLEGE, ROBINSON ROAD",22.27865,114.15326,253,0,Asia/Hong_Kong
254,"[CTB] GARDEN TERRACE, ROBINSON ROAD|[NWFB] GARDEN TERRACE, ROBINSON ROAD",22.27603,114.15493,254,0,Asia/Hong_Kong
255,"[CTB] HK ZOOLOGICAL & BOTANICAL GARDEN, GARDEN ROAD|[NWFB] HK ZOOLOGICAL & BOTANICAL GARDEN, GARDEN ROAD",22.27751,114.15770,255,0,Asia/Hong_Kong
256,"[CTB] ST. JOHN'S CATHEDRAL, GARDEN ROAD|[CTB] ST. JOHN'S CATHEDRAL/<BR>ST. JOHN'S CATHEDRAL, GARDEN ROAD|[KMB+CTB] ST. JOHN'S CATHEDRAL/<BR>ST. JOHN'S CATHEDRAL, GARDEN ROAD|[NWFB] ST. JOHN'S CATHEDRAL, GARDEN ROAD",22.27827,114.15970,256,0,Asia/Hong_Kong
257,"[CTB] HSBC MAIN BUILDING, QUEEN'S ROAD CENTRAL|[NWFB] HSBC MAIN BUILDING, QUEEN'S ROAD CENTRAL",22.27989,114.15910,257,0,Asia/Hong_Kong
258,[CTB] PEDDER STREET|[KMB+CTB] PEDDER STREET/<BR>PEDDER STREET|[NWFB] PEDDER STREET,22.28190,114.15746,258,0,Asia/Hong_Kong
259,"[CTB] TWO INTERNATIONAL FINANCE CENTRE, MAN YIU STREET|[NWFB] TWO INTERNATIONAL FINANCE CENTRE, MAN YIU STREET",22.28502,114.15972,259,0,Asia/Hong_Kong
261,"[CTB] LAN KWAI FONG, D'AGUILAR STREET|[NWFB] LAN KWAI FONG, D'AGUILAR STREET",22.28144,114.15608,261,0,Asia/Hong_Kong
262,[CTB] LYNDHURST TERRACE|[NWFB] LYNDHURST TERRACE,22.28246,114.15418,262,0,Asia/Hong_Kong
263,[CTB] TAI KWUN HOLLYWOOD ROAD|[NWFB] TAI KWUN HOLLYWOOD ROAD,22.28193,114.15427,263,0,Asia/Hong_Kong
264,"[CTB] THE CENTRIUM, ARBUTHNOT ROAD|[NWFB] THE CENTRIUM, ARBUTHNOT ROAD",22.28001,114.15458,264,0,Asia/Hong_Kong
265,"[CTB] EUSTON COURT, BONHAM ROAD|[KMB+CTB] EUSTON COURT/<BR>EUSTON COURT, BONHAM ROAD|[NWFB] EUSTON COURT, BONHAM ROAD",22.28481,114.14485,265,0,Asia/Hong_Kong
266,"[CTB] EASTERN STREET, BONHAM ROAD|[KMB+CTB] EASTERN STREET/<BR>EASTERN STREET, BONHAM ROAD|[NWFB] EASTERN STREET, BONHAM ROAD",22.28415,114.14424,266,0,Asia/Hong_Kong
267,"[CTB] ST. STEPHEN'S GIRLS' COLLEGE, PARK ROAD|[NWFB] ST. STEPHEN'S GIRLS' COLLEGE, PARK ROAD",22.28389,114.14350,267,0,Asia/Hong_Kong
268,"[CTB] EUSTON COURT, PARK ROAD|[NWFB] EUSTON COURT, PARK ROAD",22.28441,114.14499,268,0,Asia/Hong_Kong
269,"[CTB] YING WAH GIRLS' SCHOOL, ROBINSON ROAD|[NWFB] YING WAH GIRLS' SCHOOL, ROBINSON ROAD",22.28257,114.14681,269,0,Asia/Hong_Kong
270,"[CTB] PEAKSVILLE, ROBINSON ROAD|[NWFB] PEAKSVILLE, ROBINSON ROAD",22.28220,114.14753,270,0,Asia/Hong_Kong
271,"[CTB] SEYMOUR ROAD, ROBINSON ROAD|[NWFB] SEYMOUR ROAD, ROBINSON ROAD",22.28056,114.15057,271,0,Asia/Hong_Kong
274,"[KMB] WAN CHAI (HKCECE) BUS TERMINUS|[NWFB] GOLDEN BAUHINIA SQUARE, EXPO DRIVE EAST|[NWFB] GOLDEN BAUHINIA SQUARE, EXPO DRIVE EAST|[NWFB] WAN CHAI (CONVENTION CENTRE)",22.28413,114.17434,274,0,Asia/Hong_Kong
276,"[CTB] WAN CHAI FIRE STATION, HENNESSY ROAD|[KMB+CTB] WAN CHAI FIRE STATION/<BR>WAN CHAI FIRE STATION, HENNESSY ROAD|[KMB+NWFB] WAN CHAI FIRE STATION/<BR>WAN CHAI FIRE STATION, HENNESSY ROAD|[KMB] WAN CHAI FIRE STATION|[NWFB] WAN CHAI FIRE STATION, HENNESSY ROAD",22.27961,114.18156,276,0,Asia/Hong_Kong
277,"[CTB] PATERSON STREET, YEE WO STREET|[KMB+CTB] PATERSON STREET/<BR>PATERSON STREET, YEE WO STREET|[KMB+NWFB] PATERSON STREET/<BR>PATERSON STREET, YEE WO STREET|[KMB] PATERSON STREET|[NWFB] PATERSON STREET, YEE WO STREET",22.28004,114.18535,277,0,Asia/Hong_Kong
279,"[CTB] FONTANA GARDENS, TAI HANG ROAD|[KMB] FONTANA GARDENS|[NWFB] FONTANA GARDENS, TAI HANG ROAD",22.27840,114.19038,279,0,Asia/Hong_Kong
280,"[CTB] ILLUMINATION TERRACE, TAI HANG ROAD|[KMB] ILLUMINATION TERRACE|[NWFB] ILLUMINATION TERRACE, TAI HANG ROAD",22.27707,114.19360,280,0,Asia/Hong_Kong
282,[CTB] YEE KING ROAD|[KMB] YEE KING ROAD|[NWFB] YEE KING ROAD,22.28185,114.19398,282,0,Asia/Hong_Kong
283,"[CTB] NORTH POINT GOVERNMENT PRIMARY SCHOOL (CLOUD VIEW ROAD), YEE KING ROAD|[KMB] NORTH POINT GOVT PRIMARY SCHOOL (CLOUD VIEW RD)|[NWFB] NORTH POINT GOVERNMENT PRIMARY SCHOOL (CLOUD VIEW ROAD), YEE KING ROAD",22.28389,114.19506,283,0,Asia/Hong_Kong
284,"[CTB] CONCORDIA LUTHERAN SCHOOL, CLOUD VIEW ROAD|[NWFB] CONCORDIA LUTHERAN SCHOOL, CLOUD VIEW ROAD",22.28475,114.19460,284,0,Asia/Hong_Kong
285,"[CTB] HACIENDA, TIN HAU TEMPLE ROAD|[NWFB] HACIENDA, TIN HAU TEMPLE ROAD",22.28738,114.19589,285,0,Asia/Hong_Kong
286,"[CTB] CORAL COURT, TIN HAU TEMPLE ROAD|[NWFB] CORAL COURT, TIN HAU TEMPLE ROAD",22.28814,114.19792,286,0,Asia/Hong_Kong
287,"[CTB] NORTH POINT SERVICE RESERVOIR PLAYGROUND, TIN HAU TEMPLE ROAD|[NWFB] NORTH POINT SERVICE RESERVOIR PLAYGROUND, TIN HAU TEMPLE ROAD",22.28814,114.20008,287,0,Asia/Hong_Kong
288,"[CTB] PAK FUK ROAD, TIN HAU TEMPLE ROAD|[NWFB] PAK FUK ROAD, TIN HAU TEMPLE ROAD",22.28872,114.20249,288,0,Asia/Hong_Kong
289,"[CTB] BRAEMAR HILL MANSIONS, BRAEMAR HILL ROAD|[KMB] BRAEMAR HILL MANSIONS (HKSYU)|[NWFB] BRAEMAR HILL MANSIONS, BRAEMAR HILL ROAD",22.28528,114.19961,289,0,Asia/Hong_Kong
291,"[CTB] OXFORD COURT, BRAEMAR HILL ROAD|[KMB] OXFORD COURT(HKSYU)|[NWFB] OXFORD COURT, BRAEMAR HILL ROAD",22.28511,114.19949,291,0,Asia/Hong_Kong
292,"[CTB] CCC KWEI WAH SHAN COLLEGE, CLOUD VIEW ROAD|[KMB] CCC KWEI WAH SHAN COLLEGE|[NWFB] CCC KWEI WAH SHAN COLLEGE, CLOUD VIEW ROAD",22.28705,114.19899,292,0,Asia/Hong_Kong
293,"[CTB] FLORA GARDEN, CLOUD VIEW ROAD|[KMB] FLORA GARDEN|[NWFB] FLORA GARDEN, CLOUD VIEW ROAD",22.28722,114.19738,293,0,Asia/Hong_Kong
294,"[CTB] MAIDEN COURT, CLOUD VIEW ROAD|[KMB] MAIDEN COURT|[NWFB] MAIDEN COURT, CLOUD VIEW ROAD",22.28648,114.19679,294,0,Asia/Hong_Kong
295,"[CTB] EVELYN TOWERS, CLOUD VIEW ROAD|[KMB] EVELYN TOWERS|[NWFB] EVELYN TOWERS, CLOUD VIEW ROAD",22.28507,114.19622,295,0,Asia/Hong_Kong
296,"[CTB] CLEMENTI SECONDARY SCHOOL, FORTRESS HILL ROAD|[NWFB] CLEMENTI SECONDARY SCHOOL, FORTRESS HILL ROAD",22.28742,114.19541,296,0,Asia/Hong_Kong
297,[CTB] HING FAT STREET|[KMB+CTB] HING FAT STREET/<BR>HING FAT STREET|[KMB+NWFB] HING FAT STREET/<BR>HING FAT STREET|[KMB] HING FAT STREET|[NWFB] HING FAT STREET,22.28343,114.19110,297,0,Asia/Hong_Kong
300,[CTB] YEE KING ROAD|[KMB] YEE KING ROAD|[NWFB] YEE KING ROAD,22.28113,114.19362,300,0,Asia/Hong_Kong
301,"[CTB] LAI KIT LAU LAI TAK TSUEN, LAI TAK TSUEN ROAD|[KMB] LAI KIT LAU LAI TAK TSUEN|[NWFB] LAI KIT LAU LAI TAK TSUEN, LAI TAK TSUEN ROAD",22.27886,114.19365,301,0,Asia/Hong_Kong
304,"[CTB] FONTANA GARDENS, TAI HANG ROAD|[KMB] FONTANA GARDENS|[NWFB] FONTANA GARDENS, TAI HANG ROAD",22.27800,114.19074,304,0,Asia/Hong_Kong
306,"[CTB] CHI FU|[CTB] CHI FU LANDMARK, CHI FU ROAD|[NWFB] CHI FU|[NWFB] CHI FU LANDMARK, CHI FU ROAD",22.25762,114.13931,306,0,Asia/Hong_Kong
307,"[CTB] CHI FU FA YUEN TENNIS COURT, CHI FU ROAD|[NWFB] CHI FU FA YUEN TENNIS COURT, CHI FU ROAD",22.25902,114.13781,307,0,Asia/Hong_Kong
308,"[CTB] YU CHUN KEUNG MEMORIAL COLLEGE NO.2, POK FU LAM ROAD|[NWFB] YU CHUN KEUNG MEMORIAL COLLEGE NO.2, POK FU LAM ROAD",22.25596,114.13783,308,0,Asia/Hong_Kong
309,"[CTB] WAH FU ROAD, SHEK PAI WAN ROAD|[KMB+CTB] WAH FU ROAD/<BR>WAH FU ROAD, SHEK PAI WAN ROAD|[NWFB] WAH FU ROAD, SHEK PAI WAN ROAD",22.25230,114.14081,309,0,Asia/Hong_Kong
310,"[CTB] TIN WAN STREET, SHEK PAI WAN ROAD|[NWFB] TIN WAN STREET, SHEK PAI WAN ROAD",22.24943,114.14844,310,0,Asia/Hong_Kong
312,"[CTB] YIP YEE MANSION, ABERDEEN MAIN ROAD|[KMB+CTB] YIP YEE MANSION/<BR>YIP YEE MANSION, ABERDEEN MAIN ROAD|[NWFB] YIP YEE MANSION, ABERDEEN MAIN ROAD",22.24751,114.15825,312,0,Asia/Hong_Kong
313,"[CTB] ABERDEEN TECHNICAL SCHOOL, WONG CHUK HANG ROAD|[KMB+CTB] ABERDEEN TECHNICAL SCHOOL/<BR>ABERDEEN TECHNICAL SCHOOL, WONG CHUK HANG ROAD|[NWFB] ABERDEEN TECHNICAL SCHOOL, WONG CHUK HANG ROAD",22.24873,114.16247,313,0,Asia/Hong_Kong
315,[CTB] ABERDEEN TUNNEL TOLL PLAZA|[KMB+CTB] ABERDEEN TUNNEL/<BR>ABERDEEN TUNNEL TOLL PLAZA|[NWFB] ABERDEEN TUNNEL TOLL PLAZA,22.24998,114.17571,315,0,Asia/Hong_Kong
316,"[CTB] LAP TAK LANE, MORRISON HILL ROAD|[KMB+CTB] LAP TAK LANE/<BR>LAP TAK LANE, MORRISON HILL ROAD|[NWFB] LAP TAK LANE, MORRISON HILL ROAD",22.27621,114.18026,316,0,Asia/Hong_Kong
318,"[CTB] ANTON STREET, HENNESSY ROAD|[KMB] ANTON STREET|[NWFB] ANTON STREET, HENNESSY ROAD",22.27765,114.16898,318,0,Asia/Hong_Kong
319,"[CTB] BANK OF CHINA TOWER, QUEENSWAY|[KMB+CTB] BANK OF CHINA TOWER/<BR>BANK OF CHINA TOWER, QUEENSWAY|[KMB+NWFB] BANK OF CHINA TOWER/<BR>BANK OF CHINA TOWER, QUEENSWAY|[KMB] BANK OF CHINA TOWER|[NWFB] BANK OF CHINA TOWER, QUEENSWAY",22.27947,114.16213,319,0,Asia/Hong_Kong
320,"[CTB] CENTRAL MARKET, QUEEN VICTORIA STREET|[KMB+NWFB] QUEEN VICTORIA STREET/<BR>CENTRAL MARKET, QUEEN VICTORIA STREET",22.28389,114.15574,320,0,Asia/Hong_Kong
321,"[CTB] THE CENTER, QUEEN'S ROAD CENTRAL|[NWFB] THE CENTER, QUEEN'S ROAD CENTRAL",22.28431,114.15392,321,0,Asia/Hong_Kong
322,"[CTB] HOLLYWOOD TERRACE, QUEEN'S ROAD CENTRAL|[KMB+NWFB] HOLLYWOOD TERRACE/<BR>HOLLYWOOD TERRACE, QUEEN'S ROAD CENTRAL|[NWFB] HOLLYWOOD TERRACE, QUEEN'S ROAD CENTRAL",22.28444,114.15124,322,0,Asia/Hong_Kong
323,"[CTB] SHEUNG WAN CIVIC CENTRE, QUEEN'S ROAD CENTRAL|[KMB+NWFB] SHEUNG WAN CIVIC CENTRE/<BR>SHEUNG WAN CIVIC CENTRE, QUEEN'S ROAD CENTRAL|[NWFB] SHEUNG WAN CIVIC CENTRE, QUEEN'S ROAD CENTRAL",22.28598,114.14909,323,0,Asia/Hong_Kong
324,"[CTB] SUTHERLAND STREET, QUEEN'S ROAD WEST|[NWFB] SUTHERLAND STREET, QUEEN'S ROAD WEST",22.28662,114.14530,324,0,Asia/Hong_Kong
325,"[CTB] CENTRE STREET, QUEEN'S ROAD WEST|[KMB+NWFB] CENTRE STREET/<BR>CENTRE STREET, QUEEN'S ROAD WEST|[NWFB] CENTRE STREET, QUEEN'S ROAD WEST",22.28683,114.14278,325,0,Asia/Hong_Kong
326,"[CTB] WESTERN STREET, QUEEN'S ROAD WEST|[NWFB] WESTERN STREET, QUEEN'S ROAD WEST",22.28690,114.14155,326,0,Asia/Hong_Kong
327,"[CTB] LI SING PRIMARY SCHOOL, POK FU LAM ROAD|[NWFB] LI SING PRIMARY SCHOOL, POK FU LAM ROAD",22.28547,114.13995,327,0,Asia/Hong_Kong
328,"[CTB] HKU WEST GATE, POK FU LAM ROAD|[KMB+CTB] HKU WEST GATE/<BR>HKU WEST GATE, POK FU LAM ROAD|[NWFB] HKU WEST GATE, POK FU LAM ROAD",22.28361,114.13561,328,0,Asia/Hong_Kong
329,"[CTB] LADY HO TUNG HALL, POK FU LAM ROAD|[KMB+CTB] LADY HO TUNG HALL/<BR>LADY HO TUNG HALL, POK FU LAM ROAD|[NWFB] LADY HO TUNG HALL, POK FU LAM ROAD",22.28374,114.13337,329,0,Asia/Hong_Kong
330,[KMB+CTB] POKFIELD ROAD BUS TERMINUS/<BR>POKFIELD ROAD|[NWFB] POKFIELD ROAD,22.28166,114.13233,330,0,Asia/Hong_Kong
331,"[CTB] POK FU LAM PLAYGROUND, POK FU LAM ROAD|[NWFB] POK FU LAM PLAYGROUND, POK FU LAM ROAD",22.27825,114.13113,331,0,Asia/Hong_Kong
332,"[CTB] HKCCCU POK FU LAM ROAD CEMETERY, POK FU LAM ROAD|[NWFB] HKCCCU POK FU LAM ROAD CEMETERY, POK FU LAM ROAD",22.27348,114.13029,332,0,Asia/Hong_Kong
334,"[CTB] QUEEN MARY HOSPITAL, POK FU LAM ROAD|[NWFB] QUEEN MARY HOSPITAL, POK FU LAM ROAD",22.26962,114.13064,334,0,Asia/Hong_Kong
335,"[CTB] EBENEZER SCHOOL, POK FU LAM ROAD|[NWFB] EBENEZER SCHOOL, POK FU LAM ROAD",22.26692,114.13250,335,0,Asia/Hong_Kong
336,"[CTB] MIDDLETON TOWERS, POK FU LAM ROAD|[NWFB] MIDDLETON TOWERS, POK FU LAM ROAD",22.26435,114.13373,336,0,Asia/Hong_Kong
337,"[CTB] POK FU LAM RESERVOIR ROAD, POK FU LAM ROAD|[NWFB] POK FU LAM RESERVOIR ROAD, POK FU LAM ROAD",22.26251,114.13566,337,0,Asia/Hong_Kong
338,"[CTB] POK FU LAM VILLAGE, POK FU LAM ROAD|[NWFB] POK FU LAM VILLAGE, POK FU LAM ROAD",22.26072,114.13652,338,0,Asia/Hong_Kong
340,"[CTB] CHI FU CLOSE, CHI FU ROAD|[NWFB] CHI FU CLOSE, CHI FU ROAD",22.25575,114.13845,340,0,Asia/Hong_Kong
341,"[CTB] POK FU LAM VILLAGE, POK FU LAM ROAD|[NWFB] POK FU LAM VILLAGE, POK FU LAM ROAD",22.26052,114.13618,341,0,Asia/Hong_Kong
343,"[CTB] WOODBURY COURT, POK FU LAM ROAD|[NWFB] WOODBURY COURT, POK FU LAM ROAD",22.26463,114.13329,343,0,Asia/Hong_Kong
344,"[CTB] EBENEZER SCHOOL, POK FU LAM ROAD|[NWFB] EBENEZER SCHOOL, POK FU LAM ROAD",22.26731,114.13196,344,0,Asia/Hong_Kong
345,"[CTB] QUEEN MARY HOSPITAL, POK FU LAM ROAD|[NWFB] QUEEN MARY HOSPITAL, POK FU LAM ROAD",22.26899,114.13068,345,0,Asia/Hong_Kong
346,"[CTB] HKCCCU POK FU LAM ROAD CEMETERY, POK FU LAM ROAD|[NWFB] HKCCCU POK FU LAM ROAD CEMETERY, POK FU LAM ROAD",22.27394,114.12989,346,0,Asia/Hong_Kong
347,"[CTB] MOUNT DAVIS ROAD, POK FU LAM ROAD|[NWFB] MOUNT DAVIS ROAD, POK FU LAM ROAD",22.27833,114.13093,347,0,Asia/Hong_Kong
348,"[CTB] POKFIELD ROAD, POK FU LAM ROAD|[KMB+CTB] POKFIELD ROAD/<BR>POKFIELD ROAD, POK FU LAM ROAD|[NWFB] POKFIELD ROAD, POK FU LAM ROAD",22.28215,114.13228,348,0,Asia/Hong_Kong
349,"[CTB] LADY HO TUNG HALL, POK FU LAM ROAD|[KMB+CTB] LADY HO TUNG HALL/<BR>LADY HO TUNG HALL, POK FU LAM ROAD|[NWFB] LADY HO TUNG HALL, POK FU LAM ROAD",22.28362,114.13296,349,0,Asia/Hong_Kong
350,"[CTB] HILL ROAD, POK FU LAM ROAD|[NWFB] HILL ROAD, POK FU LAM ROAD",22.28440,114.13422,350,0,Asia/Hong_Kong
351,"[CTB] ST. STEPHEN'S CHURCH COLLEGE, POK FU LAM ROAD|[NWFB] ST. STEPHEN'S CHURCH COLLEGE, POK FU LAM ROAD",22.28527,114.13844,351,0,Asia/Hong_Kong
352,[CTB] SECOND STREET|[NWFB] SECOND STREET,22.28620,114.13957,352,0,Asia/Hong_Kong
353,"[CTB] WESTERN POLICE STATION, DES VOEUX ROAD WEST|[KMB+NWFB] WESTERN POLICE STATION/<BR>WESTERN POLICE STATION, DES VOEUX ROAD WEST|[NWFB] WESTERN POLICE STATION, DES VOEUX ROAD WEST",22.28798,114.14039,353,0,Asia/Hong_Kong
354,"[CTB] CENTRE STREET, DES VOEUX ROAD WEST|[KMB+NWFB] CENTRE STREET/<BR>CENTRE STREET, DES VOEUX ROAD WEST|[NWFB] CENTRE STREET, DES VOEUX ROAD WEST",22.28802,114.14172,354,0,Asia/Hong_Kong
355,"[CTB] EASTERN STREET, DES VOEUX ROAD WEST|[KMB+NWFB] EASTERN STREET/<BR>EASTERN STREET, DES VOEUX ROAD WEST|[NWFB] EASTERN STREET, DES VOEUX ROAD WEST",22.28795,114.14402,355,0,Asia/Hong_Kong
356,"[CTB] SUTHERLAND STREET, DES VOEUX ROAD WEST|[KMB+NWFB] SUTHERLAND STREET/<BR>SUTHERLAND STREET, DES VOEUX ROAD WEST|[NWFB] SUTHERLAND STREET, DES VOEUX ROAD WEST",22.28780,114.14630,356,0,Asia/Hong_Kong
359,"[CTB] CENTRAL PIER 3, MAN KWONG STREET|[DB] CENTRAL PIER 3, MAN KWONG STREET|[KMB+CTB] CENTRAL FERRY PIER NO.3/<BR>CENTRAL PIER 3, MAN KWONG STREET|[KMB+NWFB] CENTRAL FERRY PIER NO.3/<BR>CENTRAL PIER 3, MAN KWONG STREET|[KMB] CENTRAL FERRY PIER NO.3|[NWFB] CENTRAL PIER 3, MAN KWONG STREET",22.28752,114.15727,359,0,Asia/Hong_Kong
360,[CTB] CENTRAL (STAR FERRY)|[NWFB] CENTRAL (STAR FERRY),22.28669,114.16019,360,0,Asia/Hong_Kong
362,"[CTB] SOUTHORN PLAYGROUND, JOHNSTON ROAD",22.27654,114.17210,362,0,Asia/Hong_Kong
364,"[CTB] BURROWS STREET, WAN CHAI ROAD",22.27697,114.17675,364,0,Asia/Hong_Kong
365,"[CTB] HAPPY VALLEY RACECOURSE, MORRISON HILL ROAD|[KMB+CTB] HAPPY VALLEY RACE COURSE/<BR>HAPPY VALLEY RACECOURSE, MORRISON HILL ROAD|[KMB] HAPPY VALLEY RACECOURSE|[NWFB] HAPPY VALLEY RACECOURSE, MORRISON HILL ROAD",22.27548,114.18059,365,0,Asia/Hong_Kong
366,[CTB] ABERDEEN TUNNEL TOLL PLAZA|[KMB+CTB] ABERDEEN TUNNEL/<BR>ABERDEEN TUNNEL TOLL PLAZA|[NWFB] ABERDEEN TUNNEL TOLL PLAZA,22.24975,114.17544,366,0,Asia/Hong_Kong
369,"[CTB] VICTORY FACTORY BUILDING, WONG CHUK HANG ROAD|[KMB+CTB] VICTORY FACTORY BUILDING/<BR>VICTORY FACTORY BUILDING, WONG CHUK HANG ROAD|[NWFB] VICTORY FACTORY BUILDING, WONG CHUK HANG ROAD",22.24839,114.16310,369,0,Asia/Hong_Kong
371,"[CTB] ABERDEEN PROMENADE, ABERDEEN PRAYA ROAD|[KMB+CTB] ABERDEEN PROMENADE/<BR>ABERDEEN PROMENADE, ABERDEEN PRAYA ROAD|[NWFB] ABERDEEN PROMENADE, ABERDEEN PRAYA ROAD",22.24707,114.15552,371,0,Asia/Hong_Kong
372,"[CTB] ABERDEEN WHOLESALE FISH MARKET, ABERDEEN PRAYA ROAD|[KMB+CTB] ABERDEEN WHOLESALE FISH MARKET/<BR>ABERDEEN WHOLESALE FISH MARKET, ABERDEEN PRAYA ROAD|[NWFB] ABERDEEN WHOLESALE FISH MARKET, ABERDEEN PRAYA ROAD",22.24795,114.15247,372,0,Asia/Hong_Kong
375,"[CTB] YU CHUN KEUNG MEMORIAL COLLEGE NO.2, POK FU LAM ROAD|[NWFB] YU CHUN KEUNG MEMORIAL COLLEGE NO.2, POK FU LAM ROAD",22.25599,114.13757,375,0,Asia/Hong_Kong
377,"[CTB] KING'S COLLEGE, BONHAM ROAD|[KMB+CTB] KING'S COLLEGE/<BR>KING'S COLLEGE, BONHAM ROAD|[NWFB] KING'S COLLEGE, BONHAM ROAD",22.28425,114.13983,377,0,Asia/Hong_Kong
378,"[CTB] NING YEUNG TERRACE, BONHAM ROAD|[KMB+CTB] NING YEUNG TERRACE/<BR>NING YEUNG TERRACE, BONHAM ROAD|[NWFB] NING YEUNG TERRACE, BONHAM ROAD",22.28486,114.14125,378,0,Asia/Hong_Kong
379,[CTB] CENTRAL (RUMSEY STREET)|[KMB] CENTRAL (RUMSEY ST) BUS TERMINUS|[NWFB] CENTRAL (RUMSEY STREET),22.28680,114.15446,379,0,Asia/Hong_Kong
380,"[CTB] CENTRE STREET, BONHAM ROAD|[KMB+CTB] CENTRE STREET/<BR>CENTRE STREET, BONHAM ROAD|[NWFB] CENTRE STREET, BONHAM ROAD",22.28443,114.14218,380,0,Asia/Hong_Kong
381,"[CTB] HKU EAST GATE, BONHAM ROAD|[KMB+CTB] HKU EAST GATE/<BR>HKU EAST GATE, BONHAM ROAD|[NWFB] HKU EAST GATE, BONHAM ROAD",22.28407,114.13860,381,0,Asia/Hong_Kong
382,[CTB] SHEK TONG TSUI|[KMB+NWFB] SHEK TONG TSUI/<BR>SHEK TONG TSUI,22.28638,114.13371,382,0,Asia/Hong_Kong
384,"[CTB] HILL ROAD, DES VOEUX ROAD WEST|[KMB+NWFB] HILL ROAD/<BR>HILL ROAD, DES VOEUX ROAD WEST|[NWFB] HILL ROAD, DES VOEUX ROAD WEST",22.28721,114.13431,384,0,Asia/Hong_Kong
385,"[CTB] KA ON STREET, DES VOEUX ROAD WEST|[NWFB] KA ON STREET, DES VOEUX ROAD WEST",22.28709,114.13719,385,0,Asia/Hong_Kong
388,"[CTB] STATUE SQUARE, CHATER ROAD|[KMB+CTB] CHATER ROAD/<BR>STATUE SQUARE, CHATER ROAD|[KMB+NWFB] CHATER ROAD/<BR>STATUE SQUARE, CHATER ROAD|[KMB] CHATER ROAD|[NWFB] STATUE SQUARE, CHATER ROAD",22.28152,114.15999,388,0,Asia/Hong_Kong
389,"[CTB] LUARD ROAD, HENNESSY ROAD|[KMB+CTB] LUARD ROAD/<BR>LUARD ROAD, HENNESSY ROAD|[KMB+NWFB] LUARD ROAD/<BR>LUARD ROAD, HENNESSY ROAD|[NWFB] LUARD ROAD, HENNESSY ROAD",22.27769,114.17101,389,0,Asia/Hong_Kong
392,"[CTB] SANDS STREET, BELCHER'S STREET|[KMB+NWFB] SANDS STREET/<BR>SANDS STREET, BELCHER'S STREET",22.28363,114.13065,392,0,Asia/Hong_Kong
393,"[CTB] LUEN BONG APARTMENT, BELCHER'S STREET|[KMB+NWFB] LUEN BONG APARTMENT/<BR>LUEN BONG APARTMENT, BELCHER'S STREET|[NWFB] LUEN BONG APARTMENT, BELCHER'S STREET",22.28247,114.12773,393,0,Asia/Hong_Kong
394,"[CTB] KA WAI MAN ROAD, VICTORIA ROAD|[KMB+NWFB] KA WAI MAN ROAD/<BR>KA WAI MAN ROAD, VICTORIA ROAD|[NWFB] KA WAI MAN ROAD, VICTORIA ROAD",22.28205,114.12503,394,0,Asia/Hong_Kong
395,[CTB] KENNEDY TOWN|[KMB+NWFB] KENNEDY TOWN BUS TERMINUS/<BR>KENNEDY TOWN,22.28202,114.12270,395,0,Asia/Hong_Kong
396,"[CTB] SAI SEE STREET, VICTORIA ROAD|[KMB+NWFB] SAI SEE STREET/<BR>SAI SEE STREET, VICTORIA ROAD|[NWFB] SAI SEE STREET, VICTORIA ROAD",22.28219,114.12506,396,0,Asia/Hong_Kong
398,"[CTB] BELCHER BAY PARK, KENNEDY TOWN PRAYA",22.28433,114.13017,398,0,Asia/Hong_Kong
399,"[CTB] SAI CHEUNG STREET, KENNEDY TOWN PRAYA|[KMB+NWFB] SAI CHEUNG STREET/<BR>SAI CHEUNG STREET, KENNEDY TOWN PRAYA|[NWFB] SAI CHEUNG STREET, KENNEDY TOWN PRAYA",22.28507,114.13105,399,0,Asia/Hong_Kong
400,"[CTB] COLLINSON STREET, KENNEDY TOWN PRAYA|[NWFB] COLLINSON STREET, KENNEDY TOWN PRAYA",22.28630,114.13198,400,0,Asia/Hong_Kong
401,"[CTB] LIPPO CENTRE, COTTON TREE DRIVE|[KMB+NWFB] LIPPO CENTRE/<BR>LIPPO CENTRE, COTTON TREE DRIVE|[KMB] LIPPO CENTRE|[NWFB] LIPPO CENTRE, COTTON TREE DRIVE",22.27973,114.16323,401,0,Asia/Hong_Kong
403,"[CTB] ST. STEPHEN COLLEGE PREPARATORY SCHOOL, WONG MA KOK ROAD|[NWFB] ST. STEPHEN COLLEGE PREPARATORY SCHOOL, WONG MA KOK ROAD",22.21249,114.21659,403,0,Asia/Hong_Kong
406,"[CTB] STANLEY GAP ROAD INTERCHANGE, STANLEY GAP ROAD",22.22483,114.21425,406,0,Asia/Hong_Kong
407,"[CTB] WILSON TRAIL, STANLEY GAP ROAD",22.22352,114.20862,407,0,Asia/Hong_Kong
408,"[CTB] HEADLAND ROAD, REPULSE BAY ROAD|[NWFB] HEADLAND ROAD, REPULSE BAY ROAD",22.22584,114.20314,408,0,Asia/Hong_Kong
409,"[CTB] 90 REPULSE BAY ROAD, REPULSE BAY ROAD|[CTB] HACIENDA, REPULSE BAY ROAD|[NWFB] 90 REPULSE BAY ROAD, REPULSE BAY ROAD|[NWFB] HACIENDA, REPULSE BAY ROAD",22.23546,114.19969,409,0,Asia/Hong_Kong
411,"[CTB] REPULSE BAY BEACH, REPULSE BAY ROAD|[NWFB] REPULSE BAY BEACH, REPULSE BAY ROAD",22.23852,114.19516,411,0,Asia/Hong_Kong
412,"[CTB] BELLEVIEW DRIVE, REPULSE BAY ROAD|[NWFB] BELLEVIEW DRIVE, REPULSE BAY ROAD",22.23737,114.19266,412,0,Asia/Hong_Kong
413,"[CTB] ISLAND CLUB, ISLAND ROAD|[NWFB] ISLAND CLUB, ISLAND ROAD",22.23760,114.18943,413,0,Asia/Hong_Kong
416,"[CTB] HONG KONG COUNTRY CLUB, WONG CHUK HANG ROAD|[NWFB] HONG KONG COUNTRY CLUB, WONG CHUK HANG ROAD",22.24603,114.17788,416,0,Asia/Hong_Kong
417,"[CTB] OCEAN PARK CARPARK, WONG CHUK HANG ROAD|[NWFB] OCEAN PARK CARPARK, WONG CHUK HANG ROAD",22.24812,114.17613,417,0,Asia/Hong_Kong
418,[CTB] KHALSA DIWAN SIKH TEMPLE QUEEN'S ROAD EAST,22.27477,114.17861,418,0,Asia/Hong_Kong
419,"[CTB] WAH YAN COLLEGE HONG KONG, QUEEN'S ROAD EAST|[KMB+NWFB] WAH YAN COLLEGE HONG KONG/<BR>WAH YAN COLLEGE HONG KONG, QUEEN'S ROAD EAST|[KMB] WAH YAN COLLEGE HONG KONG|[NWFB] WAH YAN COLLEGE HONG KONG, QUEEN'S ROAD EAST",22.27482,114.17627,419,0,Asia/Hong_Kong
420,"[CTB] WU CHUNG HOUSE, QUEEN'S ROAD EAST|[KMB+NWFB] WU CHUNG HOUSE/<BR>WU CHUNG HOUSE, QUEEN'S ROAD EAST|[KMB] WU CHUNG HOUSE|[NWFB] WU CHUNG HOUSE, QUEEN'S ROAD EAST",22.27453,114.17261,420,0,Asia/Hong_Kong
422,"[CTB] THREE PACIFIC PLACE, QUEEN'S ROAD EAST|[KMB+NWFB] THREE PACIFIC PLACE/<BR>THREE PACIFIC PLACE, QUEEN'S ROAD EAST|[KMB] THREE PACIFIC PLACE|[NWFB] THREE PACIFIC PLACE, QUEEN'S ROAD EAST",22.27720,114.16826,422,0,Asia/Hong_Kong
425,"[CTB] THREE PACIFIC PLACE, QUEEN'S ROAD EAST|[KMB+NWFB] THREE PACIFIC PLACE/<BR>THREE PACIFIC PLACE, QUEEN'S ROAD EAST|[NWFB] THREE PACIFIC PLACE, QUEEN'S ROAD EAST",22.27761,114.16789,425,0,Asia/Hong_Kong
426,"[CTB] LUN FAT STREET, QUEEN'S ROAD EAST|[KMB+NWFB] LUN FAT STREET/<BR>LUN FAT STREET, QUEEN'S ROAD EAST|[NWFB] LUN FAT STREET, QUEEN'S ROAD EAST",22.27610,114.17018,426,0,Asia/Hong_Kong
427,"[CTB] AMOY STREET, QUEEN'S ROAD EAST|[KMB+NWFB] AMOY STREET/<BR>AMOY STREET, QUEEN'S ROAD EAST|[NWFB] AMOY STREET, QUEEN'S ROAD EAST",22.27517,114.17168,427,0,Asia/Hong_Kong
429,"[CTB] ST. JOSEPH'S COLLEGE PRIMARY SCHOOL, QUEEN'S ROAD EAST|[KMB+NWFB] ST. JOSEPH'S COLLEGE PRIMARY SCHOOL/<BR>ST. JOSEPH'S PRIMARY SCHOOL, QUEEN'S ROAD EAST|[NWFB] ST. JOSEPH'S COLLEGE PRIMARY SCHOOL, QUEEN'S ROAD EAST",22.27517,114.17686,429,0,Asia/Hong_Kong
430,"[CTB] WONG CHUK HANG SAN WAI, WONG CHUK HANG ROAD|[NWFB] WONG CHUK HANG SAN WAI, WONG CHUK HANG ROAD",22.24863,114.17633,430,0,Asia/Hong_Kong
431,"[CTB] HONG KONG COUNTRY CLUB, WONG CHUK HANG ROAD|[NWFB] HONG KONG COUNTRY CLUB, WONG CHUK HANG ROAD",22.24579,114.17872,431,0,Asia/Hong_Kong
434,"[CTB] ISLAND CLUB, ISLAND ROAD|[NWFB] ISLAND CLUB, ISLAND ROAD",22.23757,114.18963,434,0,Asia/Hong_Kong
435,"[CTB] BELLEVIEW DRIVE, REPULSE BAY ROAD|[NWFB] BELLEVIEW DRIVE, REPULSE BAY ROAD",22.23839,114.19299,435,0,Asia/Hong_Kong
436,"[CTB] REPULSE BAY BEACH, REPULSE BAY ROAD|[NWFB] REPULSE BAY BEACH, REPULSE BAY ROAD",22.23861,114.19531,436,0,Asia/Hong_Kong
437,"[CTB] REPULSE BAY TOWERS, REPULSE BAY ROAD|[NWFB] REPULSE BAY TOWERS, REPULSE BAY ROAD",22.23844,114.19873,437,0,Asia/Hong_Kong
440,"[CTB] HEADLAND ROAD, REPULSE BAY ROAD|[NWFB] HEADLAND ROAD, REPULSE BAY ROAD",22.22665,114.20298,440,0,Asia/Hong_Kong
441,[CTB] STANLEY GAP ROAD,22.22515,114.20932,441,0,Asia/Hong_Kong
443,"[CTB] STANLEY MOUND PUMPING STATION, STANLEY GAP ROAD",22.22447,114.21199,443,0,Asia/Hong_Kong
444,"[CTB] STANLEY GAP ROAD INTERCHANGE, STANLEY GAP ROAD",22.22494,114.21423,444,0,Asia/Hong_Kong
446,"[CTB] STANLEY COURT, STANLEY VILLAGE ROAD|[NWFB] STANLEY COURT, STANLEY VILLAGE ROAD",22.22113,114.21174,446,0,Asia/Hong_Kong
448,"[CTB] ST. STEPHEN COLLEGE PREPARATORY SCHOOL, WONG MA KOK ROAD|[NWFB] ST. STEPHEN COLLEGE PREPARATORY SCHOOL, WONG MA KOK ROAD",22.21269,114.21659,448,0,Asia/Hong_Kong
449,[CTB] AP LEI CHAU ESTATE|[KMB+CTB] AP LEI CHAU ESTATE BUS TERMINUS/<BR>AP LEI CHAU ESTATE|[NWFB] AP LEI CHAU ESTATE,22.24430,114.15094,449,0,Asia/Hong_Kong
450,"[CTB] LEE CHI ROAD, AP LEI CHAU BRIDGE ROAD|[KMB+CTB] LEE CHI ROAD/<BR>LEE CHI ROAD, AP LEI CHAU BRIDGE ROAD|[NWFB] LEE CHI ROAD, AP LEI CHAU BRIDGE ROAD",22.24327,114.15516,450,0,Asia/Hong_Kong
451,"[CTB] AP LEI CHAU DRIVE, AP LEI CHAU BRIDGE ROAD|[KMB+CTB] AP LEI CHAU DRIVE/<BR>AP LEI CHAU DRIVE, AP LEI CHAU BRIDGE ROAD|[NWFB] AP LEI CHAU DRIVE, AP LEI CHAU BRIDGE ROAD",22.24363,114.15662,451,0,Asia/Hong_Kong
452,"[CTB] AP LEI CHAU DRIVE, AP LEI CHAU BRIDGE ROAD|[KMB+CTB] AP LEI CHAU DRIVE/<BR>AP LEI CHAU DRIVE, AP LEI CHAU BRIDGE ROAD|[NWFB] AP LEI CHAU DRIVE, AP LEI CHAU BRIDGE ROAD",22.24344,114.15651,452,0,Asia/Hong_Kong
453,"[CTB] LEE CHI ROAD, AP LEI CHAU BRIDGE ROAD|[KMB+CTB] LEE CHI ROAD/<BR>LEE CHI ROAD, AP LEI CHAU BRIDGE ROAD|[NWFB] LEE CHI ROAD, AP LEI CHAU BRIDGE ROAD",22.24299,114.15500,453,0,Asia/Hong_Kong
454,"[CTB] THE OASIS, AP LEI CHAU BRIDGE ROAD|[KMB+CTB] THE OASIS/<BR>THE OASIS, AP LEI CHAU BRIDGE ROAD|[NWFB] THE OASIS, AP LEI CHAU BRIDGE ROAD",22.24408,114.14974,454,0,Asia/Hong_Kong
457,[CTB] SOUTH HORIZONS|[KMB+CTB] SOUTH HORIZONS BUS TERMINUS/<BR>SOUTH HORIZONS|[NWFB] SOUTH HORIZONS|[NWFB] SOUTH HORIZONS BUS TERMINUS,22.24291,114.14917,457,0,Asia/Hong_Kong
458,"[CTB] MEI FAI COURT SOUTH HORIZONS, SOUTH HORIZONS DRIVE|[KMB+CTB] MEI FAI COURT/<BR>MEI FAI COURT SOUTH HORIZONS, SOUTH HORIZONS DRIVE|[NWFB] MEI FAI COURT SOUTH HORIZONS, SOUTH HORIZONS DRIVE",22.24301,114.14774,458,0,Asia/Hong_Kong
462,"[CTB] OCEAN COURT, ABERDEEN PRAYA ROAD|[KMB+CTB] OCEAN COURT/<BR>OCEAN COURT, ABERDEEN PRAYA ROAD|[NWFB] OCEAN COURT, ABERDEEN PRAYA ROAD",22.24752,114.15916,462,0,Asia/Hong_Kong
467,[CTB] ADMIRALTY (WEST)|[NWFB] ADMIRALTY (WEST),22.27969,114.16386,467,0,Asia/Hong_Kong
468,[CTB] ADMIRALTY STATION|[KMB+CTB] ADMIRALTY (EAST) TERMINUS/<BR>ADMIRALTY STATION|[KMB+NWFB] ADMIRALTY (EAST) TERMINUS/<BR>ADMIRALTY STATION,22.27862,114.16527,468,0,Asia/Hong_Kong
469,[CTB] CANAL ROAD BUS ONLY ROAD|[KMB+NWFB] CANAL ROAD EAST/<BR>CANAL ROAD BUS ONLY ROAD|[KMB] CANAL ROAD EAST|[NWFB] CANAL ROAD BUS ONLY ROAD,22.27838,114.18129,469,0,Asia/Hong_Kong
471,"[CTB] HIGH STREET, BONHAM ROAD|[KMB+CTB] HIGH STREET/<BR>HIGH STREET, BONHAM ROAD",22.28493,114.14566,471,0,Asia/Hong_Kong
472,"[CTB] HOSPITAL ROAD, BONHAM ROAD|[KMB+CTB] HOSPITAL ROAD/<BR>HOSPITAL ROAD, BONHAM ROAD",22.28364,114.14744,472,0,Asia/Hong_Kong
473,"[CTB] LADDER STREET, CAINE ROAD|[KMB+CTB] LADDER STREET/<BR>LADDER STREET, CAINE ROAD",22.28313,114.14887,473,0,Asia/Hong_Kong
474,"[CTB] ABERDEEN STREET, CAINE ROAD|[KMB+CTB] ABERDEEN STREET/<BR>ABERDEEN STREET, CAINE ROAD",22.28239,114.15087,474,0,Asia/Hong_Kong
475,"[CTB] ST. PETER'S CHURCH, ABERDEEN MAIN ROAD|[KMB+CTB] ST. PETER'S CHURCH/<BR>ST. PETER'S CHURCH, ABERDEEN MAIN ROAD|[NWFB] ST. PETER'S CHURCH, ABERDEEN MAIN ROAD",22.24982,114.15376,475,0,Asia/Hong_Kong
476,"[CTB] YUE FAI ROAD, ABERDEEN MAIN ROAD|[KMB+CTB] YUE FAI ROAD/<BR>YUE FAI ROAD, ABERDEEN MAIN ROAD|[NWFB] YUE FAI ROAD, ABERDEEN MAIN ROAD",22.24860,114.15578,476,0,Asia/Hong_Kong
481,[CTB] CAUSEWAY BAY (MORETON TERRACE),22.27901,114.19024,481,0,Asia/Hong_Kong
482,"[CTB] HONG KONG TRUE LIGHT COLLEGE, LEI TUNG ESTATE ROAD|[KMB+CTB] HONG KONG TRUE LIGHT COLLEGE/<BR>HONG KONG TRUE LIGHT COLLEGE, LEI TUNG ESTATE ROAD|[NWFB] HONG KONG TRUE LIGHT COLLEGE, LEI TUNG ESTATE ROAD",22.24183,114.15795,482,0,Asia/Hong_Kong
483,[CTB] LEI TUNG ESTATE,22.24070,114.15636,483,0,Asia/Hong_Kong
484,"[CTB] LEI TUNG MARKET, LEI TUNG ESTATE ROAD|[KMB+CTB] LEI TUNG MARKET/<BR>LEI TUNG MARKET, LEI TUNG ESTATE ROAD|[NWFB] LEI TUNG MARKET, LEI TUNG ESTATE ROAD",22.24145,114.15480,484,0,Asia/Hong_Kong
486,"[CTB] SUNG TAK STREET, MORRISON HILL ROAD",22.27546,114.17986,486,0,Asia/Hong_Kong
487,[CTB] OCEAN PARK|[KMB+CTB] OCEAN PARK/<BR>OCEAN PARK,22.24757,114.17395,487,0,Asia/Hong_Kong
489,[CTB] WAH FU (NORTH),22.25390,114.13676,489,0,Asia/Hong_Kong
490,"[CTB] WAH SANG HOUSE WAH FU ESTATE, WAH FU ROAD|[NWFB] WAH SANG HOUSE WAH FU ESTATE, WAH FU ROAD",22.25276,114.13599,490,0,Asia/Hong_Kong
491,[CTB] WAH FU (SOUTH)|[NWFB] WAH FU (SOUTH),22.25116,114.13653,491,0,Asia/Hong_Kong
493,"[CTB] WONG CHUK HANG RECREATION GROUND, WONG CHUK HANG ROAD|[KMB+CTB] WONG CHUK HANG RECREATION GROUND/<BR>ABERDEEN SPORTS GROUND, WONG CHUK HANG ROAD|[NWFB] WONG CHUK HANG RECREATION GROUND, WONG CHUK HANG ROAD",22.25022,114.17020,493,0,Asia/Hong_Kong
495,"[CTB] WAH LOK HOUSE WAH FU ESTATE, WAH FU ROAD|[KMB+CTB] WAH LOK HOUSE/<BR>WAH LOK HOUSE WAH FU ESTATE, WAH FU ROAD|[NWFB] WAH LOK HOUSE WAH FU ESTATE, WAH FU ROAD",22.25169,114.13848,495,0,Asia/Hong_Kong
496,"[CTB] WAH FU COMMERCIAL COMPLEX, WAH FU ROAD|[KMB+CTB] WAH FU COMMERCIAL COMPLEX/<BR>WAH FU COMMERCIAL COMPLEX, WAH FU ROAD|[NWFB] WAH FU COMMERCIAL COMPLEX, WAH FU ROAD",22.25091,114.13734,496,0,Asia/Hong_Kong
497,"[CTB] WAH CHING HOUSE WAH FU ESTATE, WAH FU ROAD|[KMB+CTB] WAH CHING HOUSE/<BR>WAH CHING HOUSE WAH FU ESTATE, WAH FU ROAD|[NWFB] WAH CHING HOUSE WAH FU ESTATE, WAH FU ROAD",22.25199,114.13600,497,0,Asia/Hong_Kong
498,"[CTB] PUI YING SECONDARY SCHOOL, WAH FU ROAD|[NWFB] PUI YING SECONDARY SCHOOL, WAH FU ROAD",22.25340,114.13572,498,0,Asia/Hong_Kong
499,"[CTB] WAH TAI HOUSE WAH FU ESTATE, WAH FU ROAD|[KMB+CTB] WAH TAI HOUSE/<BR>WAH TAI HOUSE WAH FU ESTATE, WAH FU ROAD|[NWFB] WAH TAI HOUSE WAH FU ESTATE, WAH FU ROAD",22.25178,114.13622,499,0,Asia/Hong_Kong
501,"[CTB] FU MING YUEN, CHI FU ROAD|[NWFB] FU MING YUEN, CHI FU ROAD",22.25908,114.13782,501,0,Asia/Hong_Kong
502,"[CTB] FU YAN YUEN, CHI FU ROAD|[NWFB] FU YAN YUEN, CHI FU ROAD",22.25702,114.13993,502,0,Asia/Hong_Kong
503,"[CTB] YAR CHEE VILLAS, CHI FU ROAD|[NWFB] YAR CHEE VILLAS, CHI FU ROAD",22.25530,114.13993,503,0,Asia/Hong_Kong
505,[CTB] ABERDEEN|[KMB+CTB] ABERDEEN BUS TERMINUS/<BR>ABERDEEN|[NWFB] ABERDEEN,22.24751,114.15535,505,0,Asia/Hong_Kong
506,"[CTB] HANG SENG BANK HEAD OFFICE, CONNAUGHT ROAD CENTRAL|[NWFB] HANG SENG BANK HEAD OFFICE, CONNAUGHT ROAD CENTRAL",22.28473,114.15638,506,0,Asia/Hong_Kong
507,"[CTB] QUEEN'S TERRACE, QUEEN'S ROAD WEST|[KMB+NWFB] QUEEN'S TERRACE/<BR>QUEEN'S TERRACE, QUEEN'S ROAD WEST|[NWFB] QUEEN'S TERRACE, QUEEN'S ROAD WEST",22.28653,114.14740,507,0,Asia/Hong_Kong
508,"[CTB] EASTERN STREET, QUEEN'S ROAD WEST",22.28696,114.14454,508,0,Asia/Hong_Kong
510,"[CTB] IFC MALL, MAN CHEUNG STREET|[KMB+CTB] IFC MALL/<BR>IFC MALL, MAN CHEUNG STREET|[KMB+NWFB] IFC MALL/<BR>IFC MALL, MAN CHEUNG STREET|[NWFB] IFC MALL, MAN CHEUNG STREET",22.28548,114.15787,510,0,Asia/Hong_Kong
511,"[CTB] HING WAI INDUSTRIAL CENTRE, TIN WAN PRAYA ROAD|[KMB+CTB] HING WAI INDUSTRIAL CENTRE/<BR>HING WAI INDUSTRIAL CENTRE, TIN WAN PRAYA ROAD|[NWFB] HING WAI INDUSTRIAL CENTRE, TIN WAN PRAYA ROAD",22.24857,114.14726,511,0,Asia/Hong_Kong
512,"[CTB] DAIRY FARM ICE & COLD STORAGE, TIN WAN PRAYA ROAD|[KMB+CTB] DAIRY FARM COLD STORE DEPARTMENT/<BR>DAIRY FARM ICE & COLD STORAGE, TIN WAN PRAYA ROAD|[NWFB] DAIRY FARM ICE & COLD STORAGE, TIN WAN PRAYA ROAD",22.24858,114.14449,512,0,Asia/Hong_Kong
513,[CTB] WAH KWAI ESTATE|[KMB+CTB] WAH KWAI ESTATE BUS TERMINUS/<BR>WAH KWAI ESTATE|[NWFB] WAH KWAI ESTATE,22.24963,114.14018,513,0,Asia/Hong_Kong
514,"[CTB] DAIRY FARM ICE & COLD STORAGE, TIN WAN PRAYA ROAD|[KMB+CTB] DAIRY FARM COLD STORE DEPARTMENT/<BR>DAIRY FARM ICE & COLD STORAGE, TIN WAN PRAYA ROAD|[NWFB] DAIRY FARM ICE & COLD STORAGE, TIN WAN PRAYA ROAD",22.24865,114.14434,514,0,Asia/Hong_Kong
517,[CTB] CHI LOK FA YUEN,22.38701,113.97909,517,0,Asia/Hong_Kong
518,[CTB] ADMIRALTY (TAMAR STREET),22.27915,114.16397,518,0,Asia/Hong_Kong
520,"[CTB] LINGNAN PRIMARY SCHOOL, STUBBS ROAD|[NWFB] LINGNAN PRIMARY SCHOOL, STUBBS ROAD",22.26886,114.17947,520,0,Asia/Hong_Kong
521,"[CTB] TUNG SHAN TERRACE, STUBBS ROAD|[NWFB] TUNG SHAN TERRACE, STUBBS ROAD",22.26814,114.18218,521,0,Asia/Hong_Kong
523,"[CTB] HONG KONG TENNIS CENTRE, WONG NAI CHUNG GAP ROAD|[NWFB] HONG KONG TENNIS CENTRE, WONG NAI CHUNG GAP ROAD",22.25994,114.19195,523,0,Asia/Hong_Kong
526,"[CTB] SOUTH ISLAND SCHOOL, NAM FUNG ROAD",22.25422,114.18108,526,0,Asia/Hong_Kong
527,"[CTB] WONG CHUK HANG COMPLEX FOR ELDERLY, NAM FUNG ROAD",22.25066,114.17462,527,0,Asia/Hong_Kong
528,"[CTB] WONG CHUK HANG SPORTS CENTRE, WONG CHUK HANG ROAD",22.24990,114.17332,528,0,Asia/Hong_Kong
529,"[CTB] YIP HING STREET, WONG CHUK HANG ROAD|[KMB+CTB] YIP HING ST WONG CHUK HANG/<BR>YIP HING STREET, WONG CHUK HANG ROAD",22.24908,114.16761,529,0,Asia/Hong_Kong
530,"[CTB] TSUNG MAN STREET, ABERDEEN RESERVOIR ROAD|[NWFB] TSUNG MAN STREET, ABERDEEN RESERVOIR ROAD",22.24966,114.15590,530,0,Asia/Hong_Kong
531,"[CTB] PAK SHA LAU YUE KWONG CHUEN, ABERDEEN RESERVOIR ROAD|[NWFB] PAK SHA LAU YUE KWONG CHUEN, ABERDEEN RESERVOIR ROAD",22.25149,114.15660,531,0,Asia/Hong_Kong
532,"[CTB] HOY AU LAU YUE KWONG CHUEN, YUE KWONG ROAD|[NWFB] HOY AU LAU YUE KWONG CHUEN, YUE KWONG ROAD",22.25194,114.15788,532,0,Asia/Hong_Kong
535,"[CTB] YAT FAI HOUSE YUE FAI COURT, YUE KWONG ROAD|[NWFB] YAT FAI HOUSE YUE FAI COURT, YUE KWONG ROAD",22.24848,114.15673,535,0,Asia/Hong_Kong
536,"[NWFB] KING FAI HOUSE, YUE KWONG ROAD",22.25005,114.15714,536,0,Asia/Hong_Kong
538,"[CTB] WONG CHUK HANG COMPLEX FOR ELDERLY, NAM FUNG ROAD",22.25070,114.17442,538,0,Asia/Hong_Kong
539,"[CTB] NAM FUNG - PARKER CABLE TUNNEL, NAM FUNG ROAD",22.25439,114.18061,539,0,Asia/Hong_Kong
540,"[CTB] DEEP WATER BAY ROAD, NAM FUNG ROAD",22.25418,114.18498,540,0,Asia/Hong_Kong
541,"[CTB] TAI TAM RESERVOIR ROAD, WONG NAI CHUNG GAP ROAD|[NWFB] TAI TAM RESERVOIR ROAD, WONG NAI CHUNG GAP ROAD",22.25751,114.19252,541,0,Asia/Hong_Kong
545,"[CTB] CRAIGMOUNT, STUBBS ROAD|[NWFB] CRAIGMOUNT, STUBBS ROAD",22.26693,114.18194,545,0,Asia/Hong_Kong
546,"[CTB] TUNG SHAN TERRACE, STUBBS ROAD|[NWFB] TUNG SHAN TERRACE, STUBBS ROAD",22.26823,114.18193,546,0,Asia/Hong_Kong
547,"[CTB] LINGNAN PRIMARY SCHOOL, STUBBS ROAD|[NWFB] LINGNAN PRIMARY SCHOOL, STUBBS ROAD",22.26861,114.17995,547,0,Asia/Hong_Kong
548,"[CTB] SHIU FAI TERRACE, STUBBS ROAD|[NWFB] SHIU FAI TERRACE, STUBBS ROAD",22.27023,114.17841,548,0,Asia/Hong_Kong
550,[CTB] SHAU KEI WAN|[CTB] SHAU KEI WAN BUS TERMINUS|[KMB+CTB] SHAU KEI WAN BUS TERMINUS/<BR>SHAU KEI WAN|[KMB+NWFB] SHAU KEI WAN BUS TERMINUS/<BR>SHAU KEI WAN|[KMB] SHAU KEI WAN BUS TERMINUS|[NWFB] SHAU KEI WAN,22.27842,114.22833,550,0,Asia/Hong_Kong
551,"[CTB] SHAUKEIWAN PLAZA, YIU HING ROAD|[KMB+CTB] SHAUKEIWAN PLAZA/<BR>SHAUKEIWAN PLAZA, YIU HING ROAD|[KMB+NWFB] SHAUKEIWAN PLAZA/<BR>SHAUKEIWAN PLAZA, YIU HING ROAD|[NWFB] SHAUKEIWAN PLAZA, YIU HING ROAD",22.27719,114.22622,551,0,Asia/Hong_Kong
552,"[CTB] TUNG SHING COURT, YIU HING ROAD|[KMB+CTB] TUNG SHING COURT/<BR>TUNG SHING COURT, YIU HING ROAD|[KMB+NWFB] TUNG SHING COURT/<BR>TUNG SHING COURT, YIU HING ROAD|[NWFB] TUNG SHING COURT, YIU HING ROAD",22.27608,114.22655,552,0,Asia/Hong_Kong
553,"[CTB] YIU TUNG SHOPPING CENTRE, YIU HING ROAD|[KMB+CTB] YIU TUNG SHOPPING CENTRE/<BR>YIU TUNG SHOPPING CENTRE, YIU HING ROAD|[KMB+NWFB] YIU TUNG SHOPPING CENTRE/<BR>YIU TUNG SHOPPING CENTRE, YIU HING ROAD|[NWFB] YIU TUNG SHOPPING CENTRE, YIU HING ROAD",22.27728,114.22350,553,0,Asia/Hong_Kong
554,"[CTB] YIU WAH HOUSE YIU TUNG ESTATE, YIU HING ROAD|[KMB+CTB] YIU WAH HOUSE/<BR>YIU WAH HOUSE YIU TUNG ESTATE, YIU HING ROAD|[KMB+NWFB] YIU WAH HOUSE/<BR>YIU WAH HOUSE YIU TUNG ESTATE, YIU HING ROAD|[NWFB] YIU WAH HOUSE YIU TUNG ESTATE, YIU HING ROAD",22.27896,114.22023,554,0,Asia/Hong_Kong
555,"[CTB] KING HEI HOUSE TUNG HEI COURT, YIU HING ROAD|[KMB+CTB] KING HEI HOUSE/<BR>KING HEI HOUSE TUNG HEI COURT, YIU HING ROAD|[KMB+NWFB] KING HEI HOUSE/<BR>KING HEI HOUSE TUNG HEI COURT, YIU HING ROAD|[NWFB] KING HEI HOUSE TUNG HEI COURT, YIU HING ROAD",22.28006,114.21788,555,0,Asia/Hong_Kong
556,"[CTB] HING TUNG ESTATE, YIU HING ROAD|[KMB+CTB] HING TUNG ESTATE/<BR>HING TUNG ESTATE, YIU HING ROAD|[KMB+NWFB] HING TUNG ESTATE/<BR>HING TUNG ESTATE, YIU HING ROAD|[NWFB] HING TUNG ESTATE, YIU HING ROAD",22.28081,114.21960,556,0,Asia/Hong_Kong
557,"[CTB] TAI NING STREET, WAI HANG STREET|[KMB+CTB] TAI NING STREET/<BR>TAI NING STREET, WAI HANG STREET|[KMB+NWFB] TAI NING STREET/<BR>TAI NING STREET, WAI HANG STREET|[NWFB] TAI NING STREET, WAI HANG STREET",22.28166,114.22049,557,0,Asia/Hong_Kong
558,"[CTB] CARITAS OSWALD CHEUNG INTERNATIONAL HOUSE, TIN WAN STREET|[KMB+CTB] CARITAS OSWALD CHEUNG INTERNATIONAL HOUSE/<BR>CARITAS OSWALD CHEUNG INTERNATIONAL HOUSE, TIN WAN STREET|[NWFB] CARITAS OSWALD CHEUNG INTERNATIONAL HOUSE, TIN WAN STREET",22.24985,114.14934,558,0,Asia/Hong_Kong
559,[CTB] TIN WAN ESTATE|[NWFB] TIN WAN ESTATE,22.25066,114.14964,559,0,Asia/Hong_Kong
560,"[CTB] YEW CHUNG COLLEGE OF EARLY CHILDHOOD EDUCATION, TIN WAN HILL ROAD|[KMB+CTB] YEW CHUNG COLLEGE OF EARLY CHIRDHOOD EDUCATION/<BR>YEW CHUNG COLLEGE OF EARLY CHILDHOOD EDUCATION, TIN WAN HILL ROAD|[NWFB] YEW CHUNG COLLEGE OF EARLY CHILDHOOD EDUCATION, TIN WAN HILL ROAD",22.25039,114.14762,560,0,Asia/Hong_Kong
562,"[CTB] TUNG YAN COURT, YIU HING ROAD|[KMB+CTB] TUNG YAN COURT/<BR>TUNG YAN COURT, YIU HING ROAD|[KMB+NWFB] TUNG YAN COURT/<BR>TUNG YAN COURT, YIU HING ROAD|[NWFB] TUNG YAN COURT, YIU HING ROAD",22.28077,114.22082,562,0,Asia/Hong_Kong
563,"[CTB] TUNG HEI COURT, YIU HING ROAD|[KMB+CTB] TUNG HEI COURT/<BR>TUNG HEI COURT, YIU HING ROAD|[KMB+NWFB] TUNG HEI COURT/<BR>TUNG HEI COURT, YIU HING ROAD|[NWFB] TUNG HEI COURT, YIU HING ROAD",22.28029,114.21972,563,0,Asia/Hong_Kong
564,"[CTB] YAT HEI HOUSE TUNG HEI COURT, YIU HING ROAD|[KMB+CTB] YAT HEI HOUSE/<BR>YAT HEI HOUSE TUNG HEI COURT, YIU HING ROAD|[KMB+NWFB] YAT HEI HOUSE/<BR>YAT HEI HOUSE TUNG HEI COURT, YIU HING ROAD|[NWFB] YAT HEI HOUSE TUNG HEI COURT, YIU HING ROAD",22.27937,114.21838,564,0,Asia/Hong_Kong
565,"[CTB] YIU WAH HOUSE YIU TUNG ESTATE, YIU HING ROAD|[KMB+CTB] YIU WAH HOUSE/<BR>YIU WAH HOUSE YIU TUNG ESTATE, YIU HING ROAD|[KMB+NWFB] YIU WAH HOUSE/<BR>YIU WAH HOUSE YIU TUNG ESTATE, YIU HING ROAD|[NWFB] YIU WAH HOUSE YIU TUNG ESTATE, YIU HING ROAD",22.27935,114.22124,565,0,Asia/Hong_Kong
567,"[CTB] YIU KWAI HOUSE YIU TUNG ESTATE, YIU HING ROAD|[KMB+CTB] YIU KWAI HOUSE/<BR>YIU KWAI HOUSE YIU TUNG ESTATE, YIU HING ROAD|[KMB+NWFB] YIU KWAI HOUSE/<BR>YIU KWAI HOUSE YIU TUNG ESTATE, YIU HING ROAD|[NWFB] YIU KWAI HOUSE YIU TUNG ESTATE, YIU HING ROAD",22.27563,114.22571,567,0,Asia/Hong_Kong
568,"[CTB] SHAUKEIWAN PLAZA, YIU HING ROAD|[KMB+CTB] SHAUKEIWAN PLAZA/<BR>SHAUKEIWAN PLAZA, YIU HING ROAD|[KMB+NWFB] SHAUKEIWAN PLAZA/<BR>SHAUKEIWAN PLAZA, YIU HING ROAD|[NWFB] SHAUKEIWAN PLAZA, YIU HING ROAD",22.27741,114.22598,568,0,Asia/Hong_Kong
571,"[CTB] KWAI FONG STREET, SING WOO ROAD",22.26685,114.18741,571,0,Asia/Hong_Kong
572,"[CTB] VILLAGE ROAD, SING WOO ROAD",22.26826,114.18648,572,0,Asia/Hong_Kong
573,[CTB] KING KWONG STREET|[KMB+CTB] KING KWONG STREET/<BR>KING KWONG STREET,22.26891,114.18482,573,0,Asia/Hong_Kong
582,"[CTB] LOONG FUNG TERRACE, TAI HANG ROAD|[NWFB] LOONG FUNG TERRACE, TAI HANG ROAD",22.27479,114.19196,582,0,Asia/Hong_Kong
583,"[CTB] TRAFALGAR COURT, TAI HANG ROAD|[NWFB] TRAFALGAR COURT, TAI HANG ROAD",22.27690,114.19148,583,0,Asia/Hong_Kong
585,"[CTB] TRUE LIGHT MIDDLE SCHOOL OF HK, TAI HANG ROAD|[NWFB] TRUE LIGHT MIDDLE SCHOOL OF HK, TAI HANG ROAD",22.27619,114.19522,585,0,Asia/Hong_Kong
586,[CTB] YEE WO STREET|[KMB+NWFB] YEE WO STREET/<BR>YEE WO STREET|[KMB] YEE WO STREET|[NWFB] YEE WO STREET,22.27981,114.18536,586,0,Asia/Hong_Kong
587,"[CTB] KWONG SANG HONG BUILDING, HENNESSY ROAD|[KMB] KWONG SANG HONG BUILDING",22.27794,114.17723,587,0,Asia/Hong_Kong
588,"[CTB] QUEEN VICTORIA STREET, CONNAUGHT ROAD CENTRAL|[KMB+CTB] QUEEN VICTORIA STREET/<BR>QUEEN VICTORIA STREET, CONNAUGHT ROAD CENTRAL|[KMB+NWFB] QUEEN VICTORIA STREET/<BR>QUEEN VICTORIA STREET, CONNAUGHT ROAD CENTRAL|[NWFB] QUEEN VICTORIA STREET, CONNAUGHT ROAD CENTRAL",22.28441,114.15665,588,0,Asia/Hong_Kong
589,"[CTB] ALEXANDRA HOUSE, DES VOEUX ROAD CENTRAL",22.28154,114.15827,589,0,Asia/Hong_Kong
591,"[CTB] MORENGO COURT, TAI HANG ROAD|[NWFB] MORENGO COURT, TAI HANG ROAD",22.27566,114.19329,591,0,Asia/Hong_Kong
592,"[CTB] WANG FUNG TERRACE, TAI HANG ROAD|[NWFB] WANG FUNG TERRACE, TAI HANG ROAD",22.27560,114.19182,592,0,Asia/Hong_Kong
593,"[CTB] LOONG FUNG TERRACE, TAI HANG ROAD|[NWFB] LOONG FUNG TERRACE, TAI HANG ROAD",22.27441,114.19245,593,0,Asia/Hong_Kong
594,"[CTB] PARK GARDEN, TAI HANG DRIVE",22.27359,114.19293,594,0,Asia/Hong_Kong
595,"[CTB] FLORA GARDEN, CHUN FAI ROAD",22.27361,114.19411,595,0,Asia/Hong_Kong
597,"[CTB] AURIZON, MOORSOM ROAD",22.27245,114.19377,597,0,Asia/Hong_Kong
598,"[CTB] JARDINE'S LOOKOUT GARDEN, MOORSOM ROAD",22.27085,114.19465,598,0,Asia/Hong_Kong
599,"[CTB] MOORSOM LODGE, MOORSOM ROAD",22.26945,114.19449,599,0,Asia/Hong_Kong
604,"[CTB] YWCA, MACDONNELL ROAD",22.27582,114.15620,604,0,Asia/Hong_Kong
605,"[CTB] TRAMWAY PATH, MACDONNELL ROAD",22.27562,114.15719,605,0,Asia/Hong_Kong
606,"[CTB] ST. PAUL'S CO-EDUCATIONAL COLLEGE, MACDONNELL ROAD",22.27543,114.15803,606,0,Asia/Hong_Kong
607,"[CTB] DRAGON VIEW, MACDONNELL ROAD",22.27538,114.15926,607,0,Asia/Hong_Kong
608,"[CTB] OFFICE OF THE PRC MINISTRY OF FOREIGN AFFAIRS, MACDONNELL ROAD",22.27541,114.16129,608,0,Asia/Hong_Kong
609,"[CTB] ST. JOSEPH'S COLLEGE, KENNEDY ROAD",22.27627,114.15915,609,0,Asia/Hong_Kong
610,"[CTB] QUEEN'S COLLEGE, CAUSEWAY ROAD|[KMB] QUEEN'S COLLEGE|[NWFB] QUEEN'S COLLEGE, CAUSEWAY ROAD",22.28153,114.19108,610,0,Asia/Hong_Kong
611,"[CTB] WELLINGTON STREET, QUEEN'S ROAD CENTRAL|[KMB+NWFB] WELLINGTON STREET/<BR>WELLINGTON STREET, QUEEN'S ROAD CENTRAL",22.28489,114.15323,611,0,Asia/Hong_Kong
612,"[CTB] CHIU KWONG STREET, QUEEN'S ROAD WEST|[KMB+NWFB] CHIU KWONG STREET/<BR>CHIU KWONG STREET, QUEEN'S ROAD WEST",22.28675,114.13968,612,0,Asia/Hong_Kong
613,"[CTB] SHEK TONG TSUI COMPLEX, QUEEN'S ROAD WEST|[KMB+NWFB] SHEK TONG TSUI UC COMPLEX/<BR>SHEK TONG TSUI COMPLEX, QUEEN'S ROAD WEST",22.28603,114.13533,613,0,Asia/Hong_Kong
616,[KMB+CTB] MURRAY ROAD/<BR>MURRAY ROAD,22.28025,114.16201,616,0,Asia/Hong_Kong
617,"[CTB] THE ZENITH, QUEEN'S ROAD EAST|[KMB+NWFB] THE ZENITH/<BR>THE ZENITH, QUEEN'S ROAD EAST|[NWFB] THE ZENITH, QUEEN'S ROAD EAST",22.27449,114.17391,617,0,Asia/Hong_Kong
618,"[CTB] QUEEN ELIZABETH STADIUM, QUEEN'S ROAD EAST|[NWFB] QUEEN ELIZABETH STADIUM, QUEEN'S ROAD EAST",22.27497,114.17852,618,0,Asia/Hong_Kong
619,"[CTB] SHING KWONG CHURCH, EASTERN HOSPITAL ROAD|[KMB] SHING KWONG CHURCH|[NWFB] SHING KWONG CHURCH, EASTERN HOSPITAL ROAD",22.27707,114.18888,619,0,Asia/Hong_Kong
620,[CTB] CAROLINE HILL ROAD|[NWFB] CAROLINE HILL ROAD,22.27557,114.18611,620,0,Asia/Hong_Kong
621,"[CTB] CLEVERLY STREET, DES VOEUX ROAD CENTRAL|[KMB+CTB] CLEVERLY STREET/<BR>CLEVERLY STREET, DES VOEUX ROAD CENTRAL|[KMB+NWFB] CLEVERLY STREET/<BR>CLEVERLY STREET, DES VOEUX ROAD CENTRAL|[KMB] CLEVERLY STREET|[NWFB] CLEVERLY STREET, DES VOEUX ROAD CENTRAL",22.28660,114.15150,621,0,Asia/Hong_Kong
623,"[CTB] QUEEN STREET, DES VOEUX ROAD WEST|[KMB+NWFB] QUEEN STREET/<BR>QUEEN STREET, DES VOEUX ROAD WEST",22.28762,114.14670,623,0,Asia/Hong_Kong
624,"[CTB] KO SHING STREET, DES VOEUX ROAD WEST|[KMB+NWFB] KO SHING STREET/<BR>KO SHING STREET, DES VOEUX ROAD WEST",22.28773,114.14546,624,0,Asia/Hong_Kong
625,"[CTB] CENTRE STREET, DES VOEUX ROAD WEST|[KMB+NWFB] CENTRE STREET/<BR>CENTRE STREET, DES VOEUX ROAD WEST",22.28785,114.14181,625,0,Asia/Hong_Kong
626,"[CTB] WATER STREET, DES VOEUX ROAD WEST|[KMB+NWFB] WATER STREET/<BR>WATER STREET, DES VOEUX ROAD WEST",22.28717,114.13810,626,0,Asia/Hong_Kong
627,"[CTB] HILL ROAD, DES VOEUX ROAD WEST|[KMB+NWFB] HILL ROAD/<BR>HILL ROAD, DES VOEUX ROAD WEST|[NWFB] HILL ROAD, DES VOEUX ROAD WEST",22.28663,114.13614,627,0,Asia/Hong_Kong
628,"[CTB] COSCO HOTEL, KENNEDY TOWN PRAYA|[KMB+NWFB] COSCO HOTEL/<BR>COSCO HOTEL, KENNEDY TOWN PRAYA|[NWFB] COSCO HOTEL, KENNEDY TOWN PRAYA",22.28574,114.13190,628,0,Asia/Hong_Kong
629,"[CTB] SANDS STREET, KENNEDY TOWN PRAYA|[KMB+NWFB] SANDS STREET/<BR>SANDS STREET, KENNEDY TOWN PRAYA|[NWFB] SANDS STREET, KENNEDY TOWN PRAYA",22.28424,114.13028,629,0,Asia/Hong_Kong
632,"[CTB] TUNG WAH EASTERN HOSPITAL, EASTERN HOSPITAL ROAD|[KMB] TUNG WAH EASTERN HOSPITAL|[NWFB] TUNG WAH EASTERN HOSPITAL, EASTERN HOSPITAL ROAD",22.27491,114.19007,632,0,Asia/Hong_Kong
633,[CTB] CAUSEWAY BAY (WHITFIELD ROAD),22.28614,114.19069,633,0,Asia/Hong_Kong
635,"[CTB] QUEEN'S COLLEGE, TUNG LO WAN ROAD|[KMB+NWFB] QUEEN'S COLLEGE/<BR>QUEEN'S COLLEGE, TUNG LO WAN ROAD|[NWFB] QUEEN'S COLLEGE, TUNG LO WAN ROAD",22.28098,114.19208,635,0,Asia/Hong_Kong
636,"[CTB] CHINESE RECREATION CLUB, TUNG LO WAN ROAD|[KMB+NWFB] CHINESE RECREATION CLUB/<BR>CHINESE RECREATION CLUB, TUNG LO WAN ROAD|[NWFB] CHINESE RECREATION CLUB, TUNG LO WAN ROAD",22.27908,114.19171,636,0,Asia/Hong_Kong
637,"[CTB] THE WESTWOOD, BELCHER'S STREET",22.28627,114.13272,637,0,Asia/Hong_Kong
638,"[CTB] MOUNT DAVIS PATH, VICTORIA ROAD|[NWFB] MOUNT DAVIS PATH, VICTORIA ROAD",22.27583,114.11755,638,0,Asia/Hong_Kong
639,"[CTB] MOUNT DAVIS PATH, VICTORIA ROAD|[NWFB] MOUNT DAVIS PATH, VICTORIA ROAD",22.27589,114.11743,639,0,Asia/Hong_Kong
640,"[CTB] CARITAS JOCKEY CLUB HOSTEL, VICTORIA ROAD|[NWFB] CARITAS JOCKEY CLUB HOSTEL, VICTORIA ROAD",22.27904,114.11779,640,0,Asia/Hong_Kong
641,"[CTB] ISLAND WEST TRANSFER STATION, VICTORIA ROAD|[NWFB] ISLAND WEST TRANSFER STATION, VICTORIA ROAD",22.28089,114.11945,641,0,Asia/Hong_Kong
644,"[CTB] SERENE COURT, VICTORIA ROAD|[NWFB] SERENE COURT, VICTORIA ROAD",22.28099,114.12072,644,0,Asia/Hong_Kong
645,"[CTB] ISLAND WEST TRANSFER STATION, VICTORIA ROAD|[NWFB] ISLAND WEST TRANSFER STATION, VICTORIA ROAD",22.28028,114.11874,645,0,Asia/Hong_Kong
646,"[CTB] CARITAS JOCKEY CLUB HOSTEL, VICTORIA ROAD|[NWFB] CARITAS JOCKEY CLUB HOSTEL, VICTORIA ROAD",22.27867,114.11783,646,0,Asia/Hong_Kong
647,"[CTB] CITY HALL, CONNAUGHT ROAD CENTRAL|[KMB+CTB] CITY HALL/<BR>CITY HALL, CONNAUGHT ROAD CENTRAL|[KMB+NWFB] CITY HALL/<BR>CITY HALL, CONNAUGHT ROAD CENTRAL|[NWFB] CITY HALL, CONNAUGHT ROAD CENTRAL",22.28195,114.16125,647,0,Asia/Hong_Kong
648,"[CTB] ROYAL GARDEN, REPULSE BAY ROAD|[NWFB] ROYAL GARDEN, REPULSE BAY ROAD",22.25171,114.19294,648,0,Asia/Hong_Kong
649,"[CTB] MONTE VERDE, REPULSE BAY ROAD|[NWFB] MONTE VERDE, REPULSE BAY ROAD",22.24576,114.19143,649,0,Asia/Hong_Kong
650,"[CTB] MANHATTAN TOWER, REPULSE BAY ROAD|[NWFB] MANHATTAN TOWER, REPULSE BAY ROAD",22.24034,114.18911,650,0,Asia/Hong_Kong
652,"[CTB] MING WAI GARDENS, REPULSE BAY ROAD|[NWFB] MING WAI GARDENS, REPULSE BAY ROAD",22.24379,114.19077,652,0,Asia/Hong_Kong
653,"[CTB] THE BRENTWOOD, REPULSE BAY ROAD|[NWFB] THE BRENTWOOD, REPULSE BAY ROAD",22.25299,114.19252,653,0,Asia/Hong_Kong
657,"[CTB] TSING FUNG STREET FLYOVER, KING'S ROAD|[KMB+CTB] TSING FUNG STREET FLYOVER/<BR>TSING FUNG STREET FLYOVER, KING'S ROAD|[KMB+NWFB] TSING FUNG STREET FLYOVER/<BR>TSING FUNG STREET FLYOVER, KING'S ROAD|[NWFB] TSING FUNG STREET FLYOVER, KING'S ROAD",22.28612,114.19306,657,0,Asia/Hong_Kong
658,"[CTB] CANNON STREET, GLOUCESTER ROAD|[KMB+CTB] CANNON STREET/<BR>CANNON STREET, GLOUCESTER ROAD|[KMB+NWFB] CANNON STREET/<BR>CANNON STREET, GLOUCESTER ROAD|[NWFB] CANNON STREET, GLOUCESTER ROAD",22.28177,114.18300,658,0,Asia/Hong_Kong
659,"[CTB] TUNG HING HOUSE LEI TUNG ESTATE, LEI TUNG ESTATE ROAD|[KMB+CTB] TUNG HING HOUSE LEI TUNG ESTATE/<BR>TUNG HING HOUSE LEI TUNG ESTATE, LEI TUNG ESTATE ROAD|[NWFB] TUNG HING HOUSE LEI TUNG ESTATE, LEI TUNG ESTATE ROAD",22.24058,114.15529,659,0,Asia/Hong_Kong
661,[CTB] WING HING STREET|[KMB] WING HING STREET|[NWFB] WING HING STREET,22.28535,114.19217,661,0,Asia/Hong_Kong
662,"[CTB] SWISS TOWERS, TAI HANG ROAD|[NWFB] SWISS TOWERS, TAI HANG ROAD",22.27331,114.19197,662,0,Asia/Hong_Kong
663,"[CTB] BUDDHIST LI KA SHING HOME FOR ELDERLY, TAI HANG ROAD|[NWFB] BUDDHIST LI KA SHING HOME FOR ELDERLY, TAI HANG ROAD",22.27212,114.19223,663,0,Asia/Hong_Kong
664,"[CTB] PERKINS ROAD, TAI HANG ROAD|[NWFB] PERKINS ROAD, TAI HANG ROAD",22.27081,114.19143,664,0,Asia/Hong_Kong
665,"[CTB] BROADWOOD ROAD, TAI HANG ROAD|[NWFB] BROADWOOD ROAD, TAI HANG ROAD",22.26829,114.18993,665,0,Asia/Hong_Kong
666,"[CTB] MOUNT BUTLER ROAD, TAI HANG ROAD|[NWFB] MOUNT BUTLER ROAD, TAI HANG ROAD",22.26583,114.19065,666,0,Asia/Hong_Kong
667,"[CTB] ELEGANT COURT, TAI HANG ROAD|[NWFB] ELEGANT COURT, TAI HANG ROAD",22.26254,114.19040,667,0,Asia/Hong_Kong
668,[CTB] WAH FU (CENTRAL)|[KMB+CTB] WAH FU CENTRAL BUS TERMINUS/<BR>WAH FU (CENTRAL)|[KMB+CTB] WAH FU CENTRAL BUS TERMINUS/<BR>WAH FU (CENTRAL)|[NWFB] WAH FU (CENTRAL),22.25350,114.13509,668,0,Asia/Hong_Kong
670,"[CTB] MARYMOUNT PRIMARY SCHOOL, TAI HANG ROAD|[NWFB] MARYMOUNT PRIMARY SCHOOL, TAI HANG ROAD",22.26265,114.19064,670,0,Asia/Hong_Kong
672,"[CTB] NORTH POINT ROAD, JAVA ROAD|[KMB+CTB] NORTH POINT ROAD/<BR>NORTH POINT ROAD, JAVA ROAD|[KMB+NWFB] NORTH POINT ROAD/<BR>NORTH POINT ROAD, JAVA ROAD",22.29180,114.19723,672,0,Asia/Hong_Kong
673,"[CTB] EASTERN STREET, BONHAM ROAD|[KMB+CTB] EASTERN STREET/<BR>EASTERN STREET, BONHAM ROAD",22.28435,114.14347,673,0,Asia/Hong_Kong
674,"[CTB] CARITAS CENTRE, CAINE ROAD|[KMB+CTB] CARITAS CENTRE/<BR>CARITAS CENTRE, CAINE ROAD|[NWFB] CARITAS CENTRE, CAINE ROAD",22.28011,114.15400,674,0,Asia/Hong_Kong
675,"[CTB] ALEXANDRA HOUSE, ICE HOUSE STREET|[NWFB] ALEXANDRA HOUSE, ICE HOUSE STREET",22.28135,114.15880,675,0,Asia/Hong_Kong
677,"[CTB] VILLA CECIL, VICTORIA ROAD|[NWFB] VILLA CECIL, VICTORIA ROAD",22.27296,114.12014,677,0,Asia/Hong_Kong
678,"[CTB] BAYVIEW COURT, VICTORIA ROAD|[NWFB] BAYVIEW COURT, VICTORIA ROAD",22.27240,114.12382,678,0,Asia/Hong_Kong
679,"[CTB] WEST ISLAND SCHOOL, VICTORIA ROAD|[NWFB] WEST ISLAND SCHOOL, VICTORIA ROAD",22.27321,114.12626,679,0,Asia/Hong_Kong
681,"[CTB] SCENIC VILLAS, VICTORIA ROAD|[NWFB] SCENIC VILLAS, VICTORIA ROAD",22.27012,114.12554,681,0,Asia/Hong_Kong
682,"[CTB] SHA WAN DRIVE, VICTORIA ROAD|[NWFB] SHA WAN DRIVE, VICTORIA ROAD",22.26824,114.12712,682,0,Asia/Hong_Kong
683,"[CTB] SASSOON ROAD, VICTORIA ROAD|[NWFB] SASSOON ROAD, VICTORIA ROAD",22.26668,114.12792,683,0,Asia/Hong_Kong
684,"[CTB] HKU LI KA SHING FACULTY OF MEDICINE, VICTORIA ROAD|[NWFB] HKU LI KA SHING FACULTY OF MEDICINE, VICTORIA ROAD",22.26716,114.12945,684,0,Asia/Hong_Kong
685,"[CTB] LOWER BAGUIO VILLA, VICTORIA ROAD|[NWFB] LOWER BAGUIO VILLA, VICTORIA ROAD",22.26362,114.13232,685,0,Asia/Hong_Kong
686,"[CTB] WAH CHUI STREET, VICTORIA ROAD|[KMB+CTB] WAH CHUI STREET/<BR>WAH CHUI STREET, VICTORIA ROAD|[NWFB] WAH CHUI STREET, VICTORIA ROAD",22.25426,114.13704,686,0,Asia/Hong_Kong
687,"[CTB] POK FU LAM FIRE STATION, VICTORIA ROAD|[KMB+CTB] POK FU LAM FIRE STATION/<BR>POK FU LAM FIRE STATION, VICTORIA ROAD|[NWFB] POK FU LAM FIRE STATION, VICTORIA ROAD",22.25335,114.13827,687,0,Asia/Hong_Kong
688,"[CTB] CYBERPORT ROAD, VICTORIA ROAD|[NWFB] CYBERPORT ROAD, VICTORIA ROAD",22.25985,114.13349,688,0,Asia/Hong_Kong
689,"[CTB] VICTORIA ROAD ZONE SUB-STATION, VICTORIA ROAD|[KMB+CTB] OLD POK FU LAM KENNELS/<BR>VICTORIA ROAD ZONE SUB-STATION, VICTORIA ROAD|[NWFB] VICTORIA ROAD ZONE SUB-STATION, VICTORIA ROAD",22.25621,114.13451,689,0,Asia/Hong_Kong
691,"[CTB] UPPER BAGUIO VILLA, VICTORIA ROAD|[NWFB] UPPER BAGUIO VILLA, VICTORIA ROAD",22.26186,114.13316,691,0,Asia/Hong_Kong
692,"[CTB] LOWER BAGUIO VILLA, VICTORIA ROAD|[NWFB] LOWER BAGUIO VILLA, VICTORIA ROAD",22.26387,114.13157,692,0,Asia/Hong_Kong
694,"[CTB] SASSOON ROAD, VICTORIA ROAD|[NWFB] SASSOON ROAD, VICTORIA ROAD",22.26726,114.12748,694,0,Asia/Hong_Kong
695,"[CTB] BISNEY ROAD, VICTORIA ROAD|[NWFB] BISNEY ROAD, VICTORIA ROAD",22.26888,114.12629,695,0,Asia/Hong_Kong
696,"[CTB] SCENIC VILLAS, VICTORIA ROAD|[NWFB] SCENIC VILLAS, VICTORIA ROAD",22.27035,114.12545,696,0,Asia/Hong_Kong
697,"[CTB] HKCCCU POK FU LAM ROAD CEMETERY, VICTORIA ROAD|[NWFB] HKCCCU POK FU LAM ROAD CEMETERY, VICTORIA ROAD",22.27124,114.12676,697,0,Asia/Hong_Kong
698,"[CTB] WEST ISLAND SCHOOL, VICTORIA ROAD|[NWFB] WEST ISLAND SCHOOL, VICTORIA ROAD",22.27283,114.12535,698,0,Asia/Hong_Kong
700,"[CTB] UPPER BAGUIO VILLA, VICTORIA ROAD|[NWFB] UPPER BAGUIO VILLA, VICTORIA ROAD",22.26176,114.13370,700,0,Asia/Hong_Kong
702,"[CTB] VICTORIA ROAD ZONE SUB-STATION, VICTORIA ROAD|[KMB+CTB] OLD POK FU LAM KENNELS/<BR>VICTORIA ROAD ZONE SUB-STATION, VICTORIA ROAD|[NWFB] VICTORIA ROAD ZONE SUB-STATION, VICTORIA ROAD",22.25613,114.13528,702,0,Asia/Hong_Kong
703,"[CTB] WONG CHUK HANG SAN WAI, WONG CHUK HANG ROAD",22.24878,114.17566,703,0,Asia/Hong_Kong
706,"[CTB] TSUN YIP LANE, KWUN TONG ROAD|[KMB] TSUN YIP LANE, KWUN TONG",22.31317,114.22395,706,0,Asia/Hong_Kong
707,"[CTB] TING FU STREET, KWUN TONG ROAD|[KMB+CTB] TING FU STREET, KWUN TONG/<BR>TING FU STREET, KWUN TONG ROAD|[KMB] TING FU STREET, KWUN TONG",22.31598,114.21641,707,0,Asia/Hong_Kong
708,"[CTB] FORTUNE CITY ONE, NGAN SHING STREET|[KMB+CTB] FORTUNE CITY ONE/<BR>CITY ONE PLAZA, NGAN SHING STREET|[KMB] FORTUNE CITY ONE|[LWB] FORTUNE CITY ONE|[NWFB] FORTUNE CITY ONE, NGAN SHING STREET",22.38700,114.20375,708,0,Asia/Hong_Kong
709,[CTB] CITY ONE SHATIN|[KMB+CTB] CITY ONE SHA TIN BUS TERMINUS/<BR>CITY ONE SHATIN|[KMB] CITY ONE SHA TIN BUS TERMINUS|[NWFB] CITY ONE SHATIN,22.38611,114.20248,709,0,Asia/Hong_Kong
711,[XB] KWUN TONG ROAD EASTBOUND (NEAR THE FOOTBRIDGE OF KOWLOON BAY STATION EXIT B),22.32473,114.21434,711,0,Asia/Hong_Kong
712,"[CTB] NGAU TAU KOK STATION, KWUN TONG ROAD|[KMB+CTB] NGAU TAU KOK STATION/<BR>NGAU TAU KOK STATION, KWUN TONG ROAD|[KMB+NWFB] NGAU TAU KOK STATION/<BR>NGAU TAU KOK STATION, KWUN TONG ROAD|[KMB] NGAU TAU KOK STATION|[NWFB] NGAU TAU KOK STATION, KWUN TONG ROAD",22.31510,114.21967,712,0,Asia/Hong_Kong
716,"[CTB] 127 REPULSE BAY ROAD, REPULSE BAY ROAD|[NWFB] 127 REPULSE BAY ROAD, REPULSE BAY ROAD",22.23666,114.19942,716,0,Asia/Hong_Kong
718,[KMB] KOWLOON TONG STATION,22.33643,114.17686,718,0,Asia/Hong_Kong
719,"[KMB+CTB] FORTUNE CITY ONE/<BR>BLOCK 11 CITY ONE SHATIN, NGAN SHING STREET|[KMB] FORTUNE CITY ONE|[LWB] FORTUNE CITY ONE|[NWFB] BLOCK 11 CITY ONE SHATIN, NGAN SHING STREET",22.38728,114.20382,719,0,Asia/Hong_Kong
721,"[CTB] BLOCK 13 CITY ONE SHATIN, TAI CHUNG KIU ROAD|[KMB+CTB] CITY ONE SHATIN/<BR>BLOCK 13 CITY ONE SHATIN, TAI CHUNG KIU ROAD|[KMB] CITY ONE SHATIN|[LWB] CITY ONE SHATIN|[NWFB] BLOCK 13 CITY ONE SHATIN, TAI CHUNG KIU ROAD",22.38849,114.20186,721,0,Asia/Hong_Kong
723,"[CTB] MODY ROAD, CHATHAM ROAD SOUTH|[KMB] MODY ROAD TSIM SHA TSUI|[NWFB] MODY ROAD, CHATHAM ROAD SOUTH",22.29845,114.17582,723,0,Asia/Hong_Kong
724,"[CTB] AUSTIN STATION, CANTON ROAD|[KMB] AUSTIN STATION",22.30367,114.16774,724,0,Asia/Hong_Kong
725,"[CTB] BUTE STREET, SHANGHAI STREET|[KMB] BUTE STREET|[NWFB] BUTE STREET, SHANGHAI STREET|[XB] SHANGHAI STREET OUTSIDE HOUSE NO. 730",22.32229,114.16753,725,0,Asia/Hong_Kong
726,"[CTB] PITT STREET, SHANGHAI STREET|[KMB] PITT STREET",22.31348,114.16936,726,0,Asia/Hong_Kong
728,[KMB] CANTON ROAD,22.29941,114.16858,728,0,Asia/Hong_Kong
734,"[CTB] HIGH COURT, QUEENSWAY|[KMB+CTB] HIGH COURT/<BR>HIGH COURT, QUEENSWAY|[KMB+NWFB] HIGH COURT/<BR>HIGH COURT, QUEENSWAY|[NWFB] HIGH COURT, QUEENSWAY",22.27841,114.16386,734,0,Asia/Hong_Kong
736,"[CTB] JAVA ROAD COMPLEX, JAVA ROAD|[KMB+CTB] JAVA ROAD MARKET/<BR>JAVA ROAD COMPLEX, JAVA ROAD|[NWFB] JAVA ROAD COMPLEX, JAVA ROAD",22.29220,114.19936,736,0,Asia/Hong_Kong
738,"[CTB] CRAIGENGOWER CRICKET CLUB, LEIGHTON ROAD|[KMB+CTB] CRAIGENGOWER CRICKET CLUB/<BR>CRAIGENGOWER CRICKET CLUB, LEIGHTON ROAD|[KMB] CRAIGENGOWER CRICKET CLUB",22.27698,114.18224,738,0,Asia/Hong_Kong
739,[KMB+CTB] MEI FOO BUS TERMINUS/<BR>MEI FOO|[KMB+NWFB] MEI FOO BUS TERMINUS/<BR>MEI FOO|[KMB] MEI FOO BUS TERMINUS,22.33710,114.14018,739,0,Asia/Hong_Kong
740,"[CTB] CHEUNG WAH STREET, CHEUNG SHA WAN ROAD|[KMB+CTB] CHEUNG WAH STREET/<BR>CHEUNG WAH STREET, CHEUNG SHA WAN ROAD|[KMB+NWFB] CHEUNG WAH STREET/<BR>CHEUNG WAH STREET, CHEUNG SHA WAN ROAD|[KMB] CHEUNG WAH STREET",22.33865,114.15224,740,0,Asia/Hong_Kong
741,"[CTB] CHEUNG SHA WAN STATION, CHEUNG SHA WAN ROAD|[KMB] UN CHAU ESTATE",22.33585,114.15587,741,0,Asia/Hong_Kong
742,[KMB] CHEUNG SHA WAN STATION,22.33514,114.15799,742,0,Asia/Hong_Kong
743,"[KMB+CTB] YEN CHOW STREET SHAM SHUI PO/<BR>YEN CHOW STREET, CHEUNG SHA WAN ROAD|[KMB+NWFB] YEN CHOW STREET SHAM SHUI PO/<BR>YEN CHOW STREET, CHEUNG SHA WAN ROAD|[NWFB] YEN CHOW STREET, CHEUNG SHA WAN ROAD",22.33234,114.16039,743,0,Asia/Hong_Kong
744,"[KMB+CTB] DUNDAS STREET MONG KOK/<BR>DUNDAS STREET, NATHAN ROAD|[KMB+NWFB] DUNDAS STREET MONG KOK/<BR>DUNDAS STREET, NATHAN ROAD|[KMB] DUNDAS STREET MONG KOK|[NWFB] DUNDAS STREET, NATHAN ROAD",22.31501,114.17036,744,0,Asia/Hong_Kong
745,"[CTB] MAN MING LANE, NATHAN ROAD|[KMB+CTB] MAN MING LANE YAU MA TEI/<BR>MAN MING LANE, NATHAN ROAD|[KMB+NWFB] MAN MING LANE YAU MA TEI/<BR>MAN MING LANE, NATHAN ROAD|[KMB] MAN MING LANE YAU MA TEI|[NWFB] MAN MING LANE, NATHAN ROAD",22.31235,114.17089,745,0,Asia/Hong_Kong
746,"[KMB+CTB] VICTORIA PARK GLOUCESTER ROAD/<BR>VICTORIA PARK, GLOUCESTER ROAD|[KMB+NWFB] VICTORIA PARK GLOUCESTER ROAD/<BR>VICTORIA PARK, GLOUCESTER ROAD|[KMB] VICTORIA PARK GLOUCESTER ROAD|[NWFB] VICTORIA PARK, GLOUCESTER ROAD",22.28000,114.18745,746,0,Asia/Hong_Kong
747,"[KMB+CTB] OI YIN STREET/<BR>ALDRICH GARDEN, OI YIN STREET|[KMB+NWFB] ALDRICH GARDEN/<BR>ALDRICH GARDEN, OI YIN STREET|[NWFB] ALDRICH GARDEN, OI YIN STREET",22.28090,114.22830,747,0,Asia/Hong_Kong
748,"[CTB] TAI FOO STREET, SHAU KEI WAN ROAD|[KMB+CTB] TAI FOO STREET/<BR>TAI FOO STREET, SHAU KEI WAN ROAD|[KMB+NWFB] TAI FOO STREET/<BR>TAI FOO STREET, SHAU KEI WAN ROAD|[KMB] TAI FOO STREET|[NWFB] TAI FOO STREET, SHAU KEI WAN ROAD",22.28318,114.22094,748,0,Asia/Hong_Kong
749,"[CTB] SUNWAY GARDENS, KING'S ROAD|[KMB+CTB] SUNWAY GARDENS/<BR>SUNWAY GARDENS, KING'S ROAD|[KMB+NWFB] SUNWAY GARDENS/<BR>SUNWAY GARDENS, KING'S ROAD|[KMB] QUARRY BAY (KING'S ROAD) TERMINUS|[NWFB] SUNWAY GARDENS, KING'S ROAD",22.28535,114.21119,749,0,Asia/Hong_Kong
751,"[KMB+NWFB] NELSON STREET MONG KOK/<BR>NELSON STREET, NATHAN ROAD|[KMB] NELSON STREET MONG KOK",22.31860,114.16941,751,0,Asia/Hong_Kong
752,"[CTB] BUTE STREET, NATHAN ROAD|[KMB+CTB] BUTE STREET MONG KOK/<BR>BUTE STREET, NATHAN ROAD|[KMB+NWFB] BUTE STREET MONG KOK/<BR>BUTE STREET, NATHAN ROAD|[KMB] BUTE STREET MONG KOK|[NWFB] BUTE STREET, NATHAN ROAD",22.32176,114.16875,752,0,Asia/Hong_Kong
754,"[CTB] MAPLE STREET, CHEUNG SHA WAN ROAD|[KMB] MAPLE STREET SHAM SHUI PO",22.32755,114.16622,754,0,Asia/Hong_Kong
756,"[KMB+CTB] PEI HO STREET SHAM SHUI PO/<BR>PEI HO STREET, CHEUNG SHA WAN ROAD|[KMB+NWFB] PEI HO STREET SHAM SHUI PO/<BR>PEI HO STREET, CHEUNG SHA WAN ROAD|[KMB] PEI HO STREET SHAM SHUI PO|[NWFB] PEI HO STREET, CHEUNG SHA WAN ROAD",22.33057,114.16233,756,0,Asia/Hong_Kong
757,"[CTB] CHEUNG SHA WAN PLAYGROUND, CHEUNG SHA WAN ROAD|[KMB+CTB] CHEUNG SHA WAN PLAYGROUND/<BR>CHEUNG SHA WAN PLAYGROUND, CHEUNG SHA WAN ROAD|[KMB] CHEUNG SHA WAN PLAYGROUND",22.33565,114.15573,757,0,Asia/Hong_Kong
758,"[KMB+CTB] TRADE SQUARE/<BR>TRADE SQUARE, CHEUNG SHA WAN ROAD|[KMB+NWFB] TRADE SQUARE/<BR>TRADE SQUARE, CHEUNG SHA WAN ROAD|[KMB] TRADE SQUARE|[NWFB] TRADE SQUARE, CHEUNG SHA WAN ROAD",22.33687,114.15418,758,0,Asia/Hong_Kong
760,"[KMB+CTB] CHEUNG LAI STREET CHEUNG SHA WAN/<BR>CHEUNG LAI STREET, CHEUNG SHA WAN ROAD|[KMB+NWFB] CHEUNG LAI STREET CHEUNG SHA WAN/<BR>CHEUNG LAI STREET, CHEUNG SHA WAN ROAD|[KMB] CHEUNG LAI STREET CHEUNG SHA WAN",22.33690,114.14737,760,0,Asia/Hong_Kong
768,"[CTB] KOWLOON TONG STATION, WATERLOO ROAD|[KMB+CTB] KOWLOON TONG STATION/<BR>KOWLOON TONG STATION, WATERLOO ROAD|[KMB] KOWLOON TONG STATION",22.33571,114.17911,768,0,Asia/Hong_Kong
770,"[KMB+CTB] KOWLOON HOSPITAL/<BR>KOWLOON HOSPITAL, WATERLOO ROAD|[KMB+NWFB] KOWLOON HOSPITAL/<BR>KOWLOON HOSPITAL, WATERLOO ROAD|[KMB] KOWLOON HOSPITAL",22.32355,114.17839,770,0,Asia/Hong_Kong
773,"[KMB+CTB] HO MAN TIN HILL ROAD/<BR>HO MAN TIN HILL ROAD, WYLIE ROAD|[KMB] HO MAN TIN HILL ROAD",22.31250,114.17613,773,0,Asia/Hong_Kong
774,"[KMB+CTB] QUEEN ELIZABETH HOSPITAL/<BR>QUEEN ELIZABETH HOSPITAL, WYLIE ROAD|[KMB] QUEEN ELIZABETH HOSPITAL",22.30911,114.17637,774,0,Asia/Hong_Kong
775,"[KMB+CTB] HONG KONG POLYTECHNIC UNIVERSITY PHASE 8/<BR>HONG KONG POLYTECHNIC UNIVERSITY PHASE 8, CHATHAM ROAD NORTH|[KMB+NWFB] HONG KONG POLYTECHNIC UNIVERSITY PHASE 8/<BR>HONG KONG POLYTECHNIC UNIVERSITY PHASE 8, CHATHAM ROAD NORTH|[NWFB] HONG KONG POLYTECHNIC UNIVERSITY PHASE 8, CHATHAM ROAD NORTH",22.30645,114.18004,775,0,Asia/Hong_Kong
776,"[CTB] O'BRIEN ROAD, GLOUCESTER ROAD|[KMB+CTB] O'BRIEN ROAD/<BR>O'BRIEN ROAD, GLOUCESTER ROAD|[KMB+NWFB] O'BRIEN ROAD/<BR>O'BRIEN ROAD, GLOUCESTER ROAD|[KMB] O'BRIEN ROAD|[NWFB] O'BRIEN ROAD, GLOUCESTER ROAD",22.27914,114.17346,776,0,Asia/Hong_Kong
777,"[CTB] GOVERNMENT HOUSE, UPPER ALBERT ROAD|[KMB+CTB] GOVERNMENT HOUSE/<BR>GOVERNMENT HOUSE, UPPER ALBERT ROAD|[NWFB] GOVERNMENT HOUSE, UPPER ALBERT ROAD",22.27874,114.15641,777,0,Asia/Hong_Kong
778,"[CTB] HSBC MAIN BUILDING, DES VOEUX ROAD CENTRAL|[KMB+CTB] HSBC BUILDING/<BR>HSBC MAIN BUILDING, DES VOEUX ROAD CENTRAL|[KMB+NWFB] HSBC BUILDING/<BR>HSBC MAIN BUILDING, DES VOEUX ROAD CENTRAL|[KMB] HSBC BUILDING",22.28071,114.15914,778,0,Asia/Hong_Kong
779,"[KMB+CTB] QUEEN ELIZABETH HOSPITAL/<BR>QUEEN ELIZABETH HOSPITAL, WYLIE ROAD|[KMB] QUEEN ELIZABETH HOSPITAL",22.30962,114.17610,779,0,Asia/Hong_Kong
780,"[KMB+CTB] GREENFIELD TERRACE/<BR>GREENFIELD TERRACE, PRINCESS MARGARET ROAD|[KMB+NWFB] GREENFIELD TERRACE/<BR>GREENFIELD TERRACE, PRINCESS MARGARET ROAD|[KMB] GREENFIELD TERRACE",22.31330,114.17672,780,0,Asia/Hong_Kong
781,"[KMB+CTB] AUXILIARY MEDICAL SERVICE/<BR>AUXILIARY MEDICAL SERVICES HEADQUARTERS, PRINCESS MARGARET ROAD|[KMB+NWFB] AUXILIARY MEDICAL SERVICE/<BR>AUXILIARY MEDICAL SERVICES HEADQUARTERS, PRINCESS MARGARET ROAD|[KMB] AUXILIARY MEDICAL SERVICE",22.31763,114.17843,781,0,Asia/Hong_Kong
782,"[CTB] METROPARK HOTEL KOWLOON, WATERLOO ROAD|[KMB+CTB] METROPARK HOTEL KOWLOON/<BR>METROPARK HOTEL KOWLOON, WATERLOO ROAD|[KMB+NWFB] METROPARK HOTEL KOWLOON/<BR>METROPARK HOTEL KOWLOON, WATERLOO ROAD|[KMB] METROPARK HOTEL KOWLOON",22.31898,114.17566,782,0,Asia/Hong_Kong
783,"[KMB+CTB] ST. GEORGE APARTMENTS/<BR>ST. GEORGE'S APARTMENTS, WATERLOO ROAD|[KMB+NWFB] ST. GEORGE APARTMENTS/<BR>ST. GEORGE'S APARTMENTS, WATERLOO ROAD|[KMB] ST. GEORGE APARTMENTS",22.32405,114.17815,783,0,Asia/Hong_Kong
785,"[CTB] CHRISTIAN CENTRAL CHURCH, WATERLOO ROAD|[KMB+CTB] CHRISTIAN CENTRAL CHURCH/<BR>CHRISTIAN CENTRAL CHURCH, WATERLOO ROAD|[KMB] CHRISTIAN CENTRAL CHURCH",22.33208,114.17866,785,0,Asia/Hong_Kong
786,[KMB+CTB] HEREFORD ROAD/<BR>HEREFORD ROAD,22.33405,114.18039,786,0,Asia/Hong_Kong
787,"[KMB+CTB] MARY ROSE SCHOOL/<BR>MARY ROSE SCHOOL, RENFREW ROAD|[KMB] MARY ROSE SCHOOL",22.33463,114.18132,787,0,Asia/Hong_Kong
788,"[KMB+CTB] H.K. BAPTIST UNIVERSITY/<BR>HKBU SHAW CAMPUS, RENFREW ROAD|[KMB] H.K. BAPTIST UNIVERSITY",22.33794,114.18163,788,0,Asia/Hong_Kong
790,"[KMB+CTB] LOK FU PLACE/<BR>LOK FU PLAZA, JUNCTION ROAD|[KMB] LOK FU PLACE",22.33777,114.18641,790,0,Asia/Hong_Kong
793,"[CTB] BAPTIST RAINBOW PRIMARY SCHOOL, CHUK YUEN ROAD|[KMB+CTB] RAINBOW PRIMARY SCHOOL/<BR>BAPTIST RAINBOW PRIMARY SCHOOL, CHUK YUEN ROAD|[KMB] RAINBOW PRIMARY SCHOOL",22.34522,114.19042,793,0,Asia/Hong_Kong
794,[KMB+CTB] KOWLOON BAY BUS TERMINUS/<BR>KOWLOON BAY (ENTERPRISE SQUARE)|[KMB] KOWLOON BAY BUS TERMINUS,22.32203,114.20780,794,0,Asia/Hong_Kong
795,"[CTB] LAM WAH STREET, WANG CHIU ROAD|[KMB+CTB] LAM WAH STREET, KOWLOON BAY/<BR>LAM WAH STREET, WANG CHIU ROAD|[KMB+NWFB] LAM WAH STREET, KOWLOON BAY/<BR>LAM WAH STREET, WANG CHIU ROAD|[KMB] LAM WAH STREET, KOWLOON BAY|[NWFB] LAM WAH STREET, WANG CHIU ROAD",22.32307,114.20878,795,0,Asia/Hong_Kong
797,"[CTB] BLOCK 18 RICHLAND GARDENS, WANG CHIU ROAD|[KMB+CTB] BLOCK 18 RICHLAND GARDENS/<BR>BLOCK 18 RICHLAND GARDENS, WANG CHIU ROAD|[KMB+NWFB] BLOCK 18 RICHLAND GARDENS/<BR>BLOCK 18 RICHLAND GARDENS, WANG CHIU ROAD|[KMB] BLOCK 18 RICHLAND GARDENS",22.32964,114.20812,797,0,Asia/Hong_Kong
